{"features":[{"geometry":{"coordinates":[-8.70209,42.21496],"type":"Point"},"type":"Feature","properties":{"barrio":"RAVISO","codigo_postal":"36214","numero":0,"web":"www.alcampo.es","calle":"AVDA MADRID","parroquia":"SARDOMA","lon":-8.70209,"id":4750,"telefono":"986417000","nombre":"Alcampo II (Avda. Madrid)","lat":42.21496}},{"geometry":{"coordinates":[-8.74443,42.21917],"type":"Point"},"type":"Feature","properties":{"barrio":"VIGO","codigo_postal":"36209","numero":1,"web":"www.alcampo.es","calle":"RUA GROVE (O)","parroquia":"VIGO","lon":-8.74443,"id":4751,"telefono":"986201010","nombre":"Alcampo I (Coia)","lat":42.21917}},{"geometry":{"coordinates":[-8.72095,42.23137],"type":"Point"},"type":"Feature","properties":{"barrio":null,"codigo_postal":"36202","numero":59,"web":null,"calle":"AVDA BEIRAMAR","parroquia":null,"lon":-8.72095,"id":5405,"telefono":"649660264","nombre":"Auditorio Mar de Vigo","lat":42.23137}},{"geometry":{"coordinates":[-8.72093,42.23143],"type":"Point"},"type":"Feature","properties":{"barrio":"VIGO","codigo_postal":"36203","numero":0,"web":"www.plazaeliptica.com","calle":"PRAZA FRANCISCO FDEZ. DEL RIEGO","parroquia":"VIGO","lon":-8.72093,"id":4753,"telefono":"986485650","nombre":"Praza Elíptica","lat":42.23143}},{"geometry":{"coordinates":[-8.71745,42.22928],"type":"Point"},"type":"Feature","properties":{"barrio":"VIGO","codigo_postal":"36204","numero":4,"web":null,"calle":"RUA PADRE FEIJOO","parroquia":"VIGO","lon":-8.71745,"id":4754,"telefono":"986420060","nombre":"Padre Feijoo","lat":42.22928}},{"geometry":{"coordinates":[-8.72185,42.23724],"type":"Point"},"type":"Feature","properties":{"barrio":"VIGO","codigo_postal":"36202","numero":19,"web":null,"calle":"RUA VELAZQUEZ MORENO","parroquia":"VIGO","lon":-8.72185,"id":4755,"telefono":"986229933","nombre":"Velázquez Moreno","lat":42.23724}},{"geometry":{"coordinates":[-8.70828,42.23661],"type":"Point"},"type":"Feature","properties":{"barrio":"VIGO","codigo_postal":"36201","numero":null,"web":"https://www.vialiavigo.com","calle":"RUA SAN LOURENZO","parroquia":"VIGO","lon":-8.70828,"id":5407,"telefono":"986443542","nombre":"Parking Vialia Estación de Vigo (exterior)","lat":42.23661}},{"geometry":{"coordinates":[-8.72120,42.23910],"type":"Point"},"type":"Feature","properties":{"barrio":"VIGO","codigo_postal":"36201","numero":16,"web":null,"calle":"PRAZA COMPOSTELA","parroquia":"VIGO","lon":-8.72120,"id":384,"telefono":"986223510","nombre":"Roma e Compostela","lat":42.23910}},{"geometry":{"coordinates":[-8.71033,42.23937],"type":"Point"},"type":"Feature","properties":{"barrio":"VIGO","codigo_postal":"36201","numero":142,"web":"http://www.parkingvigo.es/es","calle":"RUA AREAL","parroquia":"VIGO","lon":-8.71033,"id":387,"telefono":"986132239","nombre":"Parking Vigo","lat":42.23937}},{"geometry":{"coordinates":[-8.72047,42.23682],"type":"Point"},"type":"Feature","properties":{"barrio":"VIGO","codigo_postal":"36201","numero":28,"web":null,"calle":"RUA COLON","parroquia":"VIGO","lon":-8.72047,"id":388,"telefono":"986432695","nombre":"Colón Centro","lat":42.23682}},{"geometry":{"coordinates":[-8.72740,42.24060],"type":"Point"},"type":"Feature","properties":{"barrio":"VIGO","codigo_postal":"36202","numero":1,"web":null,"calle":"RUA CANOVAS DEL CASTILLO","parroquia":"VIGO","lon":-8.72740,"id":389,"telefono":"986443788","nombre":"A Laxe (Centro Comercial)","lat":42.24060}},{"geometry":{"coordinates":[-8.71841,42.23623],"type":"Point"},"type":"Feature","properties":{"barrio":"VIGO","codigo_postal":"36202","numero":0,"web":null,"calle":"RUA RIBEIRA DO BERBÉS","parroquia":"VIGO","lon":-8.71841,"id":390,"telefono":"986229376","nombre":"O Berbés","lat":42.23623}},{"geometry":{"coordinates":[-8.71917,42.23639],"type":"Point"},"type":"Feature","properties":{"barrio":"VIGO","codigo_postal":"36201","numero":8,"web":null,"calle":"RUA URUGUAY","parroquia":"VIGO","lon":-8.71917,"id":391,"telefono":"986223949","nombre":"El Dorado","lat":42.23639}},{"geometry":{"coordinates":[-8.71940,42.23990],"type":"Point"},"type":"Feature","properties":{"barrio":"VIGO","codigo_postal":"36201","numero":0,"web":null,"calle":"Plaza Estrella","parroquia":"VIGO","lon":-8.71940,"id":392,"telefono":"986227277","nombre":"Praza da Estrella","lat":42.23990}},{"geometry":{"coordinates":[-8.72670,42.23622],"type":"Point"},"type":"Feature","properties":{"barrio":"VIGO","codigo_postal":"36202","numero":0,"web":"http://www.masaveuaparcamientos.com/portfolio/parking-vigo-plaza-del-rey/","calle":"PRAZA PRAZA DO REI","parroquia":"VIGO","lon":-8.72670,"id":393,"telefono":"986433299","nombre":"Praza do Rei","lat":42.23622}},{"geometry":{"coordinates":[-8.72264,42.23597],"type":"Point"},"type":"Feature","properties":{"barrio":"VIGO","codigo_postal":"36202","numero":11,"web":null,"calle":"RUA EDUARDO IGLESIAS","parroquia":"VIGO","lon":-8.72264,"id":394,"telefono":"986431657","nombre":"Príncipe","lat":42.23597}},{"geometry":{"coordinates":[-8.72260,42.23560],"type":"Point"},"type":"Feature","properties":{"barrio":"VIGO","codigo_postal":"36202","numero":28,"web":"https://www.mercadoprogresovigo.com","calle":"RUA PROGRESO","parroquia":"VIGO","lon":-8.72260,"id":395,"telefono":"986113950","nombre":"Mercado do Progreso","lat":42.23560}},{"geometry":{"coordinates":[-8.71806,42.23806],"type":"Point"},"type":"Feature","properties":{"barrio":"VIGO","codigo_postal":"36201","numero":0,"web":"http://www.parkingrosaliadecastro.es/","calle":"RUA ROSALIA DE CASTRO","parroquia":"VIGO","lon":-8.71806,"id":396,"telefono":"986438082","nombre":"Rosalía de Castro","lat":42.23806}},{"geometry":{"coordinates":[-8.71355,42.23258],"type":"Point"},"type":"Feature","properties":{"barrio":"VIGO","codigo_postal":"36204","numero":35,"web":null,"calle":"RUA BRASIL","parroquia":"VIGO","lon":-8.71355,"id":399,"telefono":"986418367","nombre":"Brasil","lat":42.23258}},{"geometry":{"coordinates":[-8.71151,42.23243],"type":"Point"},"type":"Feature","properties":{"barrio":"VIGO","codigo_postal":"36204","numero":0,"web":"http://www.isoluxaparcamientos.com/es/donde-aparcar/aparcamiento-fernando-el-catolico.html","calle":"PRAZA FERNANDO CATÓLICO","parroquia":"VIGO","lon":-8.71151,"id":400,"telefono":"986472687","nombre":"Fernando el Católico","lat":42.23243}},{"geometry":{"coordinates":[-8.73472,42.22319],"type":"Point"},"type":"Feature","properties":{"barrio":"VIGO","codigo_postal":"36208","numero":44,"web":null,"calle":"RUA CORUÑA","parroquia":"VIGO","lon":-8.73472,"id":404,"telefono":"986209316","nombre":"San Martín de Porres","lat":42.22319}},{"geometry":{"coordinates":[-8.73064,42.22239],"type":"Point"},"type":"Feature","properties":{"barrio":"VIGO","codigo_postal":"36211","numero":9,"web":null,"calle":"RUA PINTOR LAXEIRO","parroquia":"VIGO","lon":-8.73064,"id":405,"telefono":"986237831","nombre":"Praza Gallegos Ilustres","lat":42.22239}},{"geometry":{"coordinates":[-8.73014,42.22373],"type":"Point"},"type":"Feature","properties":{"barrio":"VIGO","codigo_postal":"36211","numero":0,"web":"https://plaza-america.parking.gal","calle":"PRAZA INDEPENDENCIA","parroquia":"VIGO","lon":-8.73014,"id":406,"telefono":"986291949","nombre":"Praza Independencia","lat":42.22373}},{"geometry":{"coordinates":[-8.73270,42.22151],"type":"Point"},"type":"Feature","properties":{"barrio":"VIGO","codigo_postal":"36211","numero":1,"web":"http://www.parkingaparca.com","calle":"PRAZA AMERICA","parroquia":"VIGO","lon":-8.73270,"id":407,"telefono":"679180070","nombre":"AparcaT Camelias","lat":42.22151}},{"geometry":{"coordinates":[-8.73437,42.22229],"type":"Point"},"type":"Feature","properties":{"barrio":"VIGO","codigo_postal":"36208","numero":7,"web":"http://www.isoluxaparcamientos.com/es/donde-aparcar/aparcamiento-coruna.html","calle":"RUA CORUÑA","parroquia":"VIGO","lon":-8.73437,"id":409,"telefono":"986410170","nombre":"Coruña","lat":42.22229}},{"geometry":{"coordinates":[-8.70281,42.23110],"type":"Point"},"type":"Feature","properties":{"barrio":"VIGO","codigo_postal":"36205","numero":209,"web":"http://garajeavenidavigo.es/","calle":"RUA URZAIZ","parroquia":"VIGO","lon":-8.70281,"id":430,"telefono":"986270098","nombre":"Garaje Avenida","lat":42.23110}},{"geometry":{"coordinates":[-8.70587,42.23193],"type":"Point"},"type":"Feature","properties":{"barrio":"VIGO","codigo_postal":"36206","numero":null,"web":null,"calle":"PRAZA MARUJA MALLO","parroquia":"VIGO","lon":-8.70587,"id":431,"telefono":"986262673","nombre":"Jenaro (Plaza Maruja Mallo)","lat":42.23193}},{"geometry":{"coordinates":[-8.70755,42.23104],"type":"Point"},"type":"Feature","properties":{"barrio":"VIGO","codigo_postal":"36205","numero":128,"web":null,"calle":"RUA URZAIZ","parroquia":"VIGO","lon":-8.70755,"id":432,"telefono":"986251879","nombre":"Caracas","lat":42.23104}},{"geometry":{"coordinates":[-8.71871,42.23542],"type":"Point"},"type":"Feature","properties":{"barrio":"VIGO","codigo_postal":"36201","numero":0,"web":"https://urzaiz.parking.gal","calle":"RUA URZAIZ","parroquia":"VIGO","lon":-8.71871,"id":4756,"telefono":"986442339","nombre":"Urzáiz","lat":42.23542}},{"geometry":{"coordinates":[-8.72368,42.23628],"type":"Point"},"type":"Feature","properties":{"barrio":"VIGO","codigo_postal":"36202","numero":29,"web":null,"calle":"RUA DR. CADAVAL","parroquia":"VIGO","lon":-8.72368,"id":4757,"telefono":"986228187","nombre":"Parking Central-","lat":42.23628}},{"geometry":{"coordinates":[-8.72523,42.24075],"type":"Point"},"type":"Feature","properties":{"barrio":"VIGO","codigo_postal":"36201","numero":0,"web":null,"calle":"RUA MONTERO RIOS","parroquia":"VIGO","lon":-8.72523,"id":4759,"telefono":"986269703","nombre":"Parking Náutico Cíes","lat":42.24075}},{"geometry":{"coordinates":[-8.71415,42.23408],"type":"Point"},"type":"Feature","properties":{"barrio":"VIGO","codigo_postal":"36201","numero":0,"web":"https://www.vialiavigo.com","calle":"PRAZA ESTACION","parroquia":"VIGO","lon":-8.71415,"id":4483,"telefono":"986443542","nombre":"Parking Vialia Estación de Vigo (interior)","lat":42.23408}},{"geometry":{"coordinates":[-8.63295,42.22536],"type":"Point"},"type":"Feature","properties":{"barrio":"PEINADOR","codigo_postal":"36318","numero":633,"web":"http://www.aena.es/es/aeropuerto-vigo/parking-general-p1.html","calle":"AVDA AEROPORTO","parroquia":"CABRAL","lon":-8.63295,"id":4484,"telefono":"986268235","nombre":"Parking general P1 - Aeroporto de Vigo (Peinador)","lat":42.22536}},{"geometry":{"coordinates":[-8.71756,42.23219],"type":"Point"},"type":"Feature","properties":{"barrio":"VIGO","codigo_postal":"36204","numero":25,"web":"www.elcorteingles.es","calle":"AVDA GRAN VIA","parroquia":"VIGO","lon":-8.71756,"id":4749,"telefono":"986415111","nombre":"El Corte Inglés","lat":42.23219}},{"geometry":{"coordinates":[-8.72764,42.22298],"type":"Point"},"type":"Feature","properties":{"barrio":"VIGO","codigo_postal":"36211","numero":12,"web":null,"calle":"RUA SALAMANCA","parroquia":"VIGO","lon":-8.72764,"id":4760,"telefono":null,"nombre":"Salamanca","lat":42.22298}},{"geometry":{"coordinates":[-8.72586,42.22499],"type":"Point"},"type":"Feature","properties":{"barrio":"Vigo","codigo_postal":null,"numero":0,"web":"https://colmeiro.parking.gal","calle":"RUA PINTOR COLMEIRO","parroquia":"Vigo","lon":-8.72586,"id":4761,"telefono":"986413419","nombre":"Pintor Colmeiro","lat":42.22499}},{"geometry":{"coordinates":[-8.70643,42.23233],"type":"Point"},"type":"Feature","properties":{"barrio":"Vigo","codigo_postal":"36206","numero":0,"web":"https://calvario.parking.gal","calle":"RUA JENARO DE LA FUENTE","parroquia":"Vigo","lon":-8.70643,"id":4762,"telefono":null,"nombre":"Aparcamiento Calvario","lat":42.23233}},{"geometry":{"coordinates":[-8.73556,42.22014],"type":"Point"},"type":"Feature","properties":{"barrio":"Vigo","codigo_postal":null,"numero":16,"web":null,"calle":"AVDA CASTELAO","parroquia":"Vigo","lon":-8.73556,"id":4763,"telefono":null,"nombre":"Aparcamiento Praza de América","lat":42.22014}},{"geometry":{"coordinates":[-8.72296,42.23741],"type":"Point"},"type":"Feature","properties":{"barrio":"VIGO","codigo_postal":"36202","numero":22,"web":"https://policarpo.parking.gal","calle":"SRUA POLICARPO SANZ","parroquia":"VIGO","lon":-8.72296,"id":4764,"telefono":"986229404","nombre":"Policarpo Sanz","lat":42.23741}},{"geometry":{"coordinates":[-8.72040,42.23864],"type":"Point"},"type":"Feature","properties":{"barrio":"VIGO","codigo_postal":"36201","numero":7,"web":null,"calle":"RUA COLON","parroquia":"VIGO","lon":-8.72040,"id":4767,"telefono":"986439878","nombre":"Garage Colon 7 SL","lat":42.23864}},{"geometry":{"coordinates":[-8.71098,42.23186],"type":"Point"},"type":"Feature","properties":{"barrio":"VIGO","codigo_postal":"36204","numero":5,"web":null,"calle":"RUA CONDESA CASA BARCENA","parroquia":"VIGO","lon":-8.71098,"id":4768,"telefono":"986420639","nombre":"Montecarlo","lat":42.23186}},{"geometry":{"coordinates":[-8.71568,42.23102],"type":"Point"},"type":"Feature","properties":{"barrio":"VIGO","codigo_postal":"36204","numero":82,"web":null,"calle":"RUA VENEZUELA","parroquia":"VIGO","lon":-8.71568,"id":4769,"telefono":"986412689","nombre":"Garaje - Autoescuela Casablanca","lat":42.23102}},{"geometry":{"coordinates":[-8.72426,42.22039],"type":"Point"},"type":"Feature","properties":{"barrio":"FREIXEIRO","codigo_postal":"36210","numero":2,"web":"www.granviadevigo.com","calle":"RUA MIRADOIRO (DO)","parroquia":"FREIXEIRO","lon":-8.72426,"id":4770,"telefono":"986447500","nombre":"Gran Vía (Centro Comercial)","lat":42.22039}},{"geometry":{"coordinates":[-8.69661,42.24276],"type":"Point"},"type":"Feature","properties":{"barrio":"VIGO","codigo_postal":"36207","numero":202,"web":"www.cctravesia.com","calle":"RUA TRAVESIA DE VIGO","parroquia":"VIGO","lon":-8.69661,"id":4771,"telefono":"986277908","nombre":"Travesía (Centro Comercial)","lat":42.24276}},{"geometry":{"coordinates":[-8.73000,42.23137],"type":"Point"},"type":"Feature","properties":{"barrio":"VIGO","codigo_postal":"36202","numero":36,"web":null,"calle":"AVDA CAMELIAS","parroquia":"VIGO","lon":-8.73000,"id":4773,"telefono":"986484115","nombre":"Garajes Camelias","lat":42.23137}},{"geometry":{"coordinates":[-8.73300,42.22902],"type":"Point"},"type":"Feature","properties":{"barrio":"VIGO","codigo_postal":"36202","numero":91,"web":null,"calle":"RUA CONDE TORRECEDEIRA","parroquia":"VIGO","lon":-8.73300,"id":4775,"telefono":"986230453","nombre":"Torrecedeira, S.L.","lat":42.22902}},{"geometry":{"coordinates":[-8.71357,42.23682],"type":"Point"},"type":"Feature","properties":{"barrio":"VIGO","codigo_postal":"36201","numero":54,"web":null,"calle":"AVDA GARCIA BARBON","parroquia":"VIGO","lon":-8.71357,"id":4778,"telefono":"986442133","nombre":"Proalbesa","lat":42.23682}},{"geometry":{"coordinates":[-8.69400,42.25151],"type":"Point"},"type":"Feature","properties":{"barrio":"VIGO","codigo_postal":"36207","numero":1,"web":null,"calle":"AVDA MARINA ESPAÑOLA","parroquia":"VIGO","lon":-8.69400,"id":4779,"telefono":"986250497","nombre":"Jogue","lat":42.25151}},{"geometry":{"coordinates":[-8.71548,42.23286],"type":"Point"},"type":"Feature","properties":{"barrio":"VIGO","codigo_postal":"36204","numero":19,"web":null,"calle":"RUA MEXICO","parroquia":"VIGO","lon":-8.71548,"id":4780,"telefono":"986410011","nombre":"Manuel Campos Bernardez","lat":42.23286}},{"geometry":{"coordinates":[-8.70241,42.24106],"type":"Point"},"type":"Feature","properties":{"barrio":"VIGO","codigo_postal":"36206","numero":147,"web":null,"calle":"RUA TRAVESIA DE VIGO","parroquia":"VIGO","lon":-8.70241,"id":4782,"telefono":"986274153","nombre":"Adolfo Vazquez Vazquez","lat":42.24106}},{"geometry":{"coordinates":[-8.72057,42.23274],"type":"Point"},"type":"Feature","properties":{"barrio":"VIGO","codigo_postal":"36203","numero":28,"web":"http://www.isoluxaparcamientos.com/es/donde-aparcar/aparcamiento-venezuela.html","calle":"RUA VENEZUELA","parroquia":"VIGO","lon":-8.72057,"id":4784,"telefono":"986221149","nombre":"Venezuela","lat":42.23274}},{"geometry":{"coordinates":[-8.71571,42.23670],"type":"Point"},"type":"Feature","properties":{"barrio":"VIGO","codigo_postal":null,"numero":34,"web":"https://www.parkingaparca.com","calle":"AVDA GARCIA BARBON","parroquia":"VIGO","lon":-8.71571,"id":5408,"telefono":"679180070","nombre":"AparcaT Royal Vigo","lat":42.23670}},{"geometry":{"coordinates":[-8.72264,42.22740],"type":"Point"},"type":"Feature","properties":{"barrio":"VIGO","codigo_postal":"36203","numero":2,"web":null,"calle":"RUA ZARAGOZA","parroquia":"VIGO","lon":-8.72264,"id":5106,"telefono":null,"nombre":"Zaragoza","lat":42.22740}},{"geometry":{"coordinates":[-8.71841,42.23623],"type":"Point"},"type":"Feature","properties":{"barrio":null,"codigo_postal":null,"numero":12,"web":null,"calle":"RUA URUGUAY","parroquia":null,"lon":-8.71841,"id":5110,"telefono":"886909638","nombre":"Praza de Portugal","lat":42.23623}},{"geometry":{"coordinates":[-8.71147,42.23933],"type":"Point"},"type":"Feature","properties":{"barrio":null,"codigo_postal":"36201","numero":0,"web":null,"calle":"RUA AREAL","parroquia":null,"lon":-8.71147,"id":5124,"telefono":"902283080","nombre":"Parking Saba Estación Tren Vigo - Guixar","lat":42.23933}},{"geometry":{"coordinates":[-8.71860,42.23953],"type":"Point"},"type":"Feature","properties":{"barrio":null,"codigo_postal":"36201","numero":null,"web":"https://eloymartranvias.es/nuestros-parkings.php?id=4","calle":"RUA AREAL","parroquia":null,"lon":-8.71860,"id":5125,"telefono":"986223225","nombre":"Areal","lat":42.23953}},{"geometry":{"coordinates":[-8.73231,42.22366],"type":"Point"},"type":"Feature","properties":{"barrio":null,"codigo_postal":null,"numero":3,"web":null,"calle":"PRAZA XOÁN PIÑEIRO","parroquia":null,"lon":-8.73231,"id":5132,"telefono":"986245165","nombre":"López Mora","lat":42.22366}},{"geometry":{"coordinates":[-8.71426,42.23094],"type":"Point"},"type":"Feature","properties":{"barrio":null,"codigo_postal":"36204","numero":18,"web":null,"calle":"RUA PIZARRO","parroquia":null,"lon":-8.71426,"id":5403,"telefono":"986519364","nombre":"Pizarro","lat":42.23094}}],"type":"FeatureCollection"}