{"features":[{"geometry":{"coordinates":[-8.75030,42.21388],"type":"Point"},"type":"Feature","properties":{"barrio":"VIGO","codigo_postal":"36209","numero":8,"web":null,"calle":"RUA SALCEDA DE CASELAS","parroquia":"VIGO","lon":-8.75030,"id":5187,"telefono":"986208512","nombre":"CPR Plurilingüe Montesol","lat":42.21388}},{"geometry":{"coordinates":[-8.71346,42.23865],"type":"Point"},"type":"Feature","properties":{"barrio":"VIGO","codigo_postal":"36201","numero":92,"web":null,"calle":"RUA AREAL","parroquia":"VIGO","lon":-8.71346,"id":5188,"telefono":"986433800","nombre":"CPR Plurilingüe Niño Jesús de Praga","lat":42.23865}},{"geometry":{"coordinates":[-8.68393,42.22858],"type":"Point"},"type":"Feature","properties":{"barrio":"BOUCIÑA","codigo_postal":"36214","numero":18,"web":null,"calle":"RUA CAMBESES","parroquia":"LAVADORES","lon":-8.68393,"id":5189,"telefono":"986274994","nombre":"CPR Plurilingüe Ntra. Señora de la Esperanza","lat":42.22858}},{"geometry":{"coordinates":[-8.69925,42.24997],"type":"Point"},"type":"Feature","properties":{"barrio":"VIGO","codigo_postal":"36207","numero":62,"web":null,"calle":"RUA PURIFICACION SAAVEDRA","parroquia":"VIGO","lon":-8.69925,"id":5190,"telefono":"986371330","nombre":"CPR Plurilingüe Possumus","lat":42.24997}},{"geometry":{"coordinates":[-8.67021,42.21912],"type":"Point"},"type":"Feature","properties":{"barrio":"FONTIÑAS","codigo_postal":"36318","numero":28,"web":null,"calle":"SBIDA CEMITERIO PUXEIROS","parroquia":"CABRAL","lon":-8.67021,"id":5191,"telefono":"986376288","nombre":"CPR Plurilingüe San Blas - Vista Alegre","lat":42.21912}},{"geometry":{"coordinates":[-8.71672,42.22559],"type":"Point"},"type":"Feature","properties":{"barrio":"MANTELAS","codigo_postal":"36204","numero":40,"web":"https://colegiosanfernandovigo.com","calle":"BDA SALGUEIRA","parroquia":"FREIXEIRO","lon":-8.71672,"id":5192,"telefono":"986410174","nombre":"CPR Plurilingüe San Fernando","lat":42.22559}},{"geometry":{"coordinates":[-8.69736,42.25049],"type":"Point"},"type":"Feature","properties":{"barrio":"VIGO","codigo_postal":"36207","numero":25,"web":null,"calle":"RUA DR. CORBAL","parroquia":"VIGO","lon":-8.69736,"id":5193,"telefono":"986376153","nombre":"CPR Plurilingüe San José de la Guía","lat":42.25049}},{"geometry":{"coordinates":[-8.73345,42.22646],"type":"Point"},"type":"Feature","properties":{"barrio":"VIGO","codigo_postal":"36208","numero":13,"web":null,"calle":"RUA TOMAS A ALONSO","parroquia":"VIGO","lon":-8.73345,"id":5194,"telefono":"986293282","nombre":"CPR Plurilingüe San Miguel 2","lat":42.22646}},{"geometry":{"coordinates":[-8.70615,42.23393],"type":"Point"},"type":"Feature","properties":{"barrio":"VIGO","codigo_postal":"36206","numero":36,"web":null,"calle":"RUA TRAVESIA DE VIGO","parroquia":"VIGO","lon":-8.70615,"id":5195,"telefono":"986278089","nombre":"CPR Quiñones de León","lat":42.23393}},{"geometry":{"coordinates":[-8.72185,42.23809],"type":"Point"},"type":"Feature","properties":{"barrio":"VIGO","codigo_postal":"36201","numero":9,"web":null,"calle":"RUA VELAZQUEZ MORENO","parroquia":"VIGO","lon":-8.72185,"id":5196,"telefono":"986227315","nombre":"CPR Radio ECCA","lat":42.23809}},{"geometry":{"coordinates":[-8.70322,42.23676],"type":"Point"},"type":"Feature","properties":{"barrio":"VIGO","codigo_postal":"36206","numero":96,"web":null,"calle":"RUA TRAVESIA DE VIGO","parroquia":"VIGO","lon":-8.70322,"id":5197,"telefono":"986272195","nombre":"CPR San Fermín","lat":42.23676}},{"geometry":{"coordinates":[-8.71308,42.22368],"type":"Point"},"type":"Feature","properties":{"barrio":"RAVISO","codigo_postal":"36204","numero":46,"web":null,"calle":"RUA CARBALLO","parroquia":"SARDOMA","lon":-8.71308,"id":5198,"telefono":"986493501","nombre":"CPR San José de Cluny","lat":42.22368}},{"geometry":{"coordinates":[-8.70458,42.23401],"type":"Point"},"type":"Feature","properties":{"barrio":"VIGO","codigo_postal":"36206","numero":52,"web":null,"calle":"RUA NUMANCIA","parroquia":"VIGO","lon":-8.70458,"id":5199,"telefono":"986262570","nombre":"CPR San Nicolás","lat":42.23401}},{"geometry":{"coordinates":[-8.69984,42.23480],"type":"Point"},"type":"Feature","properties":{"barrio":"VIGO","codigo_postal":"36206","numero":35,"web":null,"calle":"AVDA AEROPORTO","parroquia":"VIGO","lon":-8.69984,"id":1847,"telefono":"986273946","nombre":"CPR Breogán","lat":42.23480}},{"geometry":{"coordinates":[-8.70126,42.23046],"type":"Point"},"type":"Feature","properties":{"barrio":"VIGO","codigo_postal":"36205","numero":12,"web":null,"calle":"RUA PORTELA","parroquia":"VIGO","lon":-8.70126,"id":1848,"telefono":"986377779","nombre":"CPR ICA","lat":42.23046}},{"geometry":{"coordinates":[-8.68655,42.22963],"type":"Point"},"type":"Feature","properties":{"barrio":"PARDAVILA","codigo_postal":"36205","numero":247,"web":null,"calle":"AVDA RAMON NIETO","parroquia":"LAVADORES","lon":-8.68655,"id":1849,"telefono":"986372481","nombre":"CPR Plurilingüe Escuelas Nieto","lat":42.22963}},{"geometry":{"coordinates":[-8.69758,42.22753],"type":"Point"},"type":"Feature","properties":{"barrio":"BAGUNDA","codigo_postal":"36205","numero":87,"web":null,"calle":"RUA PORTELA","parroquia":"LAVADORES","lon":-8.69758,"id":5200,"telefono":"986251309","nombre":"CPR Santa Cristina","lat":42.22753}},{"geometry":{"coordinates":[-8.69452,42.21079],"type":"Point"},"type":"Feature","properties":{"barrio":"SEGADE","codigo_postal":"36214","numero":91,"web":null,"calle":"CTRA BEMBRIVE","parroquia":"BEMBRIVE","lon":-8.69452,"id":1867,"telefono":"986420433","nombre":"CPR Plurilingüe Rosalía de Castro","lat":42.21079}},{"geometry":{"coordinates":[-8.70597,42.23421],"type":"Point"},"type":"Feature","properties":{"barrio":"VIGO","codigo_postal":"36206","numero":42,"web":null,"calle":"RUA TRAVESIA DE VIGO","parroquia":"VIGO","lon":-8.70597,"id":1900,"telefono":"986273469","nombre":"CPR Esica","lat":42.23421}},{"geometry":{"coordinates":[-8.73345,42.22646],"type":"Point"},"type":"Feature","properties":{"barrio":"VIGO","codigo_postal":"36208","numero":13,"web":null,"calle":"RUA TOMAS A ALONSO","parroquia":"VIGO","lon":-8.73345,"id":1902,"telefono":"986221325","nombre":"CPR San Miguel","lat":42.22646}},{"geometry":{"coordinates":[-8.73384,42.22809],"type":"Point"},"type":"Feature","properties":{"barrio":"VIGO","codigo_postal":"36208","numero":82,"web":"http://www.seresco.es","calle":"RUA CONDE TORRECEDEIRA","parroquia":"VIGO","lon":-8.73384,"id":1916,"telefono":"986430733","nombre":"CPR Seresco","lat":42.22809}},{"geometry":{"coordinates":[-8.73197,42.22884],"type":"Point"},"type":"Feature","properties":{"barrio":"VIGO","codigo_postal":"36202","numero":139,"web":null,"calle":"RUA PI Y MARGALL","parroquia":"VIGO","lon":-8.73197,"id":1918,"telefono":"986293444","nombre":"CPR Mendiño","lat":42.22884}},{"geometry":{"coordinates":[-8.72865,42.23172],"type":"Point"},"type":"Feature","properties":{"barrio":"VIGO","codigo_postal":"36203","numero":33,"web":null,"calle":"AVDA HISPANIDADE","parroquia":"VIGO","lon":-8.72865,"id":1919,"telefono":"986419899","nombre":"CPR Cebem","lat":42.23172}},{"geometry":{"coordinates":[-8.72908,42.22738],"type":"Point"},"type":"Feature","properties":{"barrio":"VIGO","codigo_postal":"36211","numero":75,"web":null,"calle":"RUA ROMIL","parroquia":"VIGO","lon":-8.72908,"id":1920,"telefono":"986471755","nombre":"CPR Povisa Formación Profesional","lat":42.22738}},{"geometry":{"coordinates":[-8.72817,42.22236],"type":"Point"},"type":"Feature","properties":{"barrio":"VIGO","codigo_postal":"36211","numero":106,"web":null,"calle":"RUA ZAMORA","parroquia":"VIGO","lon":-8.72817,"id":1921,"telefono":"986211295","nombre":"CPR Educatic","lat":42.22236}},{"geometry":{"coordinates":[-8.72073,42.22780],"type":"Point"},"type":"Feature","properties":{"barrio":"VIGO","codigo_postal":"36203","numero":16,"web":null,"calle":"RUA RAMON Y CAJAL","parroquia":"VIGO","lon":-8.72073,"id":1922,"telefono":"986410390","nombre":"CPR Sanitex","lat":42.22780}},{"geometry":{"coordinates":[-8.72333,42.23712],"type":"Point"},"type":"Feature","properties":{"barrio":"VIGO","codigo_postal":"36202","numero":17,"web":null,"calle":"RUA PRINCIPE","parroquia":"VIGO","lon":-8.72333,"id":1960,"telefono":"986227085","nombre":"CPR Vivas","lat":42.23712}},{"geometry":{"coordinates":[-8.71405,42.23680],"type":"Point"},"type":"Feature","properties":{"barrio":"VIGO","codigo_postal":"36201","numero":50,"web":null,"calle":"AVDA GARCIA BARBON","parroquia":"VIGO","lon":-8.71405,"id":1962,"telefono":"986442121","nombre":"CPR Daniel Castelao","lat":42.23680}},{"geometry":{"coordinates":[-8.71500,42.23869],"type":"Point"},"type":"Feature","properties":{"barrio":"VIGO","codigo_postal":"36201","numero":68,"web":null,"calle":"RUA AREAL","parroquia":"VIGO","lon":-8.71500,"id":1963,"telefono":"986222215","nombre":"CPR Seforma","lat":42.23869}},{"geometry":{"coordinates":[-8.76652,42.20998],"type":"Point"},"type":"Feature","properties":{"barrio":"DEVESA","codigo_postal":"36212","numero":36,"web":null,"calle":"RUA BRAVO","parroquia":"NAVIA","lon":-8.76652,"id":5155,"telefono":"986241329","nombre":"CPR A Camelia","lat":42.20998}},{"geometry":{"coordinates":[-8.75849,42.21621],"type":"Point"},"type":"Feature","properties":{"barrio":"BARREIRO","codigo_postal":"36212","numero":21,"web":null,"calle":"AVDA EUROPA","parroquia":"ALCABRE","lon":-8.75849,"id":1981,"telefono":"986240669","nombre":"CPR Plurilingüe Amor de Dios","lat":42.21621}},{"geometry":{"coordinates":[-8.66939,42.21494],"type":"Point"},"type":"Feature","properties":{"barrio":"FONTIÑAS","codigo_postal":"36218","numero":80,"web":null,"calle":"AVDA PONTE (CABRAL)","parroquia":"CABRAL","lon":-8.66939,"id":1987,"telefono":"986378467","nombre":"CPR Estudios Marcote","lat":42.21494}},{"geometry":{"coordinates":[-8.72213,42.23048],"type":"Point"},"type":"Feature","properties":{"barrio":"VIGO","codigo_postal":"36203","numero":2,"web":"http://www.aloya.es","calle":"RUA COUTO (O CASTRO)","parroquia":"VIGO","lon":-8.72213,"id":5156,"telefono":"986420722","nombre":"CPR Aloya","lat":42.23048}},{"geometry":{"coordinates":[-8.70608,42.24246],"type":"Point"},"type":"Feature","properties":{"barrio":"VIGO","codigo_postal":"36207","numero":1,"web":null,"calle":"RUA MONTECELO","parroquia":"VIGO","lon":-8.70608,"id":1998,"telefono":"986437723","nombre":"CPR Plurilingüe Padre Míguez","lat":42.24246}},{"geometry":{"coordinates":[-8.69978,42.25253],"type":"Point"},"type":"Feature","properties":{"barrio":"VIGO","codigo_postal":"36207","numero":32,"web":null,"calle":"CMÑO CANCELO","parroquia":"VIGO","lon":-8.69978,"id":2028,"telefono":"986371686","nombre":"CPR Divino Maestro","lat":42.25253}},{"geometry":{"coordinates":[-8.73034,42.23360],"type":"Point"},"type":"Feature","properties":{"barrio":"VIGO","codigo_postal":"36202","numero":40,"web":null,"calle":"RUA PI Y MARGALL","parroquia":"VIGO","lon":-8.73034,"id":5157,"telefono":"986122035","nombre":"CPR Arturo","lat":42.23360}},{"geometry":{"coordinates":[-8.73066,42.23472],"type":"Point"},"type":"Feature","properties":{"barrio":null,"codigo_postal":"36202","numero":null,"web":"http://www.aulaestudio.com/","calle":"RUA SANTA MARTA","parroquia":null,"lon":-8.73066,"id":5158,"telefono":"986436212","nombre":"CPR Aula Estudio","lat":42.23472}},{"geometry":{"coordinates":[-8.72404,42.23261],"type":"Point"},"type":"Feature","properties":{"barrio":"VIGO","codigo_postal":"36203","numero":1,"web":null,"calle":"RUA MARQUES DE ALCEDO","parroquia":"VIGO","lon":-8.72404,"id":4631,"telefono":"986420938","nombre":"CPR Los Olivos","lat":42.23261}},{"geometry":{"coordinates":[-8.71424,42.22703],"type":"Point"},"type":"Feature","properties":{"barrio":"VIGO","codigo_postal":"36204","numero":6,"web":null,"calle":"RUA FILIPINAS","parroquia":"VIGO","lon":-8.71424,"id":5159,"telefono":"986414311","nombre":"CPR Colegio Hogar Afundación","lat":42.22703}},{"geometry":{"coordinates":[-8.71584,42.22927],"type":"Point"},"type":"Feature","properties":{"barrio":"VIGO","codigo_postal":"36204","numero":57,"web":null,"calle":"RUA VAZQUEZ VARELA","parroquia":"VIGO","lon":-8.71584,"id":5160,"telefono":"986423988","nombre":"CPR Fillas de María Inmaculada","lat":42.22927}},{"geometry":{"coordinates":[-8.72192,42.23321],"type":"Point"},"type":"Feature","properties":{"barrio":"VIGO","codigo_postal":"36203","numero":20,"web":null,"calle":"RUA VENEZUELA","parroquia":"VIGO","lon":-8.72192,"id":5161,"telefono":"986420022","nombre":"CPR El Pilar","lat":42.23321}},{"geometry":{"coordinates":[-8.66939,42.21494],"type":"Point"},"type":"Feature","properties":{"barrio":"FONTIÑAS","codigo_postal":"36215","numero":80,"web":null,"calle":"AVDA PONTE","parroquia":"CABRAL","lon":-8.66939,"id":5162,"telefono":"986251511","nombre":"CPR Marcote","lat":42.21494}},{"geometry":{"coordinates":[-8.63539,42.22901],"type":"Point"},"type":"Feature","properties":{"barrio":"PEINADOR","codigo_postal":"36318","numero":742,"web":null,"calle":"AVDA AEROPORTO","parroquia":"CABRAL","lon":-8.63539,"id":5163,"telefono":null,"nombre":"CPR Martín Códax","lat":42.22901}},{"geometry":{"coordinates":[-8.73034,42.23533],"type":"Point"},"type":"Feature","properties":{"barrio":null,"codigo_postal":"36202","numero":null,"web":null,"calle":"RUA SANTA MARTA","parroquia":null,"lon":-8.73034,"id":5164,"telefono":"986233194","nombre":"CPR Mega Formación","lat":42.23533}},{"geometry":{"coordinates":[-8.71020,42.23281],"type":"Point"},"type":"Feature","properties":{"barrio":"VIGO","codigo_postal":"36204","numero":8,"web":null,"calle":"RUA ESPERANTO","parroquia":"VIGO","lon":-8.71020,"id":5165,"telefono":"986411810","nombre":"CPR Plurilingüe Alba","lat":42.23281}},{"geometry":{"coordinates":[-8.67036,42.23410],"type":"Point"},"type":"Feature","properties":{"barrio":"PARACHAN","codigo_postal":"36317","numero":392,"web":null,"calle":"AVDA AEROPORTO","parroquia":"CANDEAN","lon":-8.67036,"id":5166,"telefono":"986272432","nombre":"CPR Plurilingüe Alborada","lat":42.23410}},{"geometry":{"coordinates":[-8.72281,42.16156],"type":"Point"},"type":"Feature","properties":{"barrio":"GARRIDA","codigo_postal":"36315","numero":28,"web":null,"calle":"CMÑO ESCOLA ANDERSEN","parroquia":"VALADARES","lon":-8.72281,"id":5167,"telefono":"986469412","nombre":"CPR Plurilingüe Andersen Augalonga","lat":42.16156}},{"geometry":{"coordinates":[-8.70374,42.24492],"type":"Point"},"type":"Feature","properties":{"barrio":"VIGO","codigo_postal":"36207","numero":79,"web":null,"calle":"RUA SANJURJO BADIA","parroquia":"VIGO","lon":-8.70374,"id":5168,"telefono":"986371011","nombre":"CPR Plurilingüe Apostol Santiago","lat":42.24492}},{"geometry":{"coordinates":[-8.69651,42.23320],"type":"Point"},"type":"Feature","properties":{"barrio":"PARDAVILA","codigo_postal":"36205","numero":18,"web":null,"calle":"RUA CANTABRIA","parroquia":"LAVADORES","lon":-8.69651,"id":5169,"telefono":"986276012","nombre":"CPR Plurilingüe Atalaya - Cantabria","lat":42.23320}},{"geometry":{"coordinates":[-8.75213,42.22181],"type":"Point"},"type":"Feature","properties":{"barrio":"VIGO","codigo_postal":"36208","numero":7,"web":null,"calle":"RUA ROCIO","parroquia":"VIGO","lon":-8.75213,"id":5170,"telefono":"986233938","nombre":"CPR Plurilingüe Atlántida","lat":42.22181}},{"geometry":{"coordinates":[-8.72235,42.18500],"type":"Point"},"type":"Feature","properties":{"barrio":"CARREGAL","codigo_postal":"36315","numero":78,"web":null,"calle":"CTRA VALADARES","parroquia":"VALADARES","lon":-8.72235,"id":5171,"telefono":"986467800","nombre":"CPR Plurilingüe Barreiro","lat":42.18500}},{"geometry":{"coordinates":[-8.69518,42.23810],"type":"Point"},"type":"Feature","properties":{"barrio":"VIGO","codigo_postal":"36206","numero":167,"web":null,"calle":"RUA SAN XOAN","parroquia":"VIGO","lon":-8.69518,"id":5172,"telefono":"986377238","nombre":"CPR Plurilingüe Bouza Brey","lat":42.23810}},{"geometry":{"coordinates":[-8.72055,42.23382],"type":"Point"},"type":"Feature","properties":{"barrio":"VIGO","codigo_postal":"36203","numero":33,"web":null,"calle":"RUA ECUADOR","parroquia":"VIGO","lon":-8.72055,"id":5173,"telefono":"986436400","nombre":"CPR Plurilingüe Compañía de María","lat":42.23382}},{"geometry":{"coordinates":[-8.77881,42.19417],"type":"Point"},"type":"Feature","properties":{"barrio":"ROZO","codigo_postal":"36330","numero":49,"web":null,"calle":"CTRA BAO","parroquia":"CORUXO","lon":-8.77881,"id":5174,"telefono":"986490320","nombre":"CPR Plurilingüe Divino Salvador","lat":42.19417}},{"geometry":{"coordinates":[-8.74148,42.22047],"type":"Point"},"type":"Feature","properties":{"barrio":"VIGO","codigo_postal":"36209","numero":5,"web":null,"calle":"RUA ESTRADA","parroquia":"VIGO","lon":-8.74148,"id":5175,"telefono":"986231149","nombre":"CPR Plurilingüe Don Bosco","lat":42.22047}},{"geometry":{"coordinates":[-8.72738,42.22156],"type":"Point"},"type":"Feature","properties":{"barrio":"FREIXEIRO","codigo_postal":"36210","numero":171,"web":null,"calle":"AVDA GRAN VIA","parroquia":"FREIXEIRO","lon":-8.72738,"id":5176,"telefono":"986481762","nombre":"CPR Plurilingüe El Castro","lat":42.22156}},{"geometry":{"coordinates":[-8.73029,42.22976],"type":"Point"},"type":"Feature","properties":{"barrio":"VIGO","codigo_postal":"36211","numero":53,"web":null,"calle":"AVDA CAMELIAS","parroquia":"VIGO","lon":-8.73029,"id":5177,"telefono":"986414529","nombre":"CPR Plurilingüe Labor","lat":42.22976}},{"geometry":{"coordinates":[-8.68732,42.21475],"type":"Point"},"type":"Feature","properties":{"barrio":"RECARE","codigo_postal":"36313","numero":26,"web":null,"calle":"RUA PARROCHA","parroquia":"BEMBRIVE","lon":-8.68732,"id":5178,"telefono":"986278016","nombre":"CPR Plurilingüe Las Acacias","lat":42.21475}},{"geometry":{"coordinates":[-8.69180,42.22776],"type":"Point"},"type":"Feature","properties":{"barrio":"PARDAVILA","codigo_postal":"36214","numero":31,"web":null,"calle":"BDA CAPITAN","parroquia":"LAVADORES","lon":-8.69180,"id":5179,"telefono":"986272229","nombre":"CPR Plurilingüe Losada","lat":42.22776}},{"geometry":{"coordinates":[-8.72425,42.23445],"type":"Point"},"type":"Feature","properties":{"barrio":null,"codigo_postal":"36203","numero":7,"web":null,"calle":"RUA VENEZUELA","parroquia":null,"lon":-8.72425,"id":5180,"telefono":"986433855","nombre":"CPR Plurilingüe María Auxiliadora","lat":42.23445}},{"geometry":{"coordinates":[-8.73084,42.23279],"type":"Point"},"type":"Feature","properties":{"barrio":"VIGO","codigo_postal":"36202","numero":58,"web":null,"calle":"RUA PI Y MARGALL","parroquia":"VIGO","lon":-8.73084,"id":5181,"telefono":"986229520","nombre":"CPR Plurilingüe María Inmaculada","lat":42.23279}},{"geometry":{"coordinates":[-8.70878,42.23124],"type":"Point"},"type":"Feature","properties":{"barrio":"VIGO","codigo_postal":"36205","numero":122,"web":null,"calle":"RUA URZAIZ","parroquia":"VIGO","lon":-8.70878,"id":5182,"telefono":"986275168","nombre":"CPR Plurilingüe Mariano","lat":42.23124}},{"geometry":{"coordinates":[-8.73480,42.22478],"type":"Point"},"type":"Feature","properties":{"barrio":"VIGO","codigo_postal":"36208","numero":56,"web":null,"calle":"RUA TOMAS A ALONSO","parroquia":"VIGO","lon":-8.73480,"id":5183,"telefono":"986233818","nombre":"CPR Plurilingüe Mercantil","lat":42.22478}},{"geometry":{"coordinates":[-8.72873,42.22150],"type":"Point"},"type":"Feature","properties":{"barrio":"VIGO","codigo_postal":"36211","numero":164,"web":null,"calle":"AVDA GRAN VIA","parroquia":"VIGO","lon":-8.72873,"id":5184,"telefono":"986213047","nombre":"CPR Plurilingüe Miralba","lat":42.22150}},{"geometry":{"coordinates":[-8.69346,42.21406],"type":"Point"},"type":"Feature","properties":{"barrio":"GANDARIÑA","codigo_postal":"36214","numero":84,"web":null,"calle":"RUA PAZ PARDO","parroquia":"LAVADORES","lon":-8.69346,"id":5185,"telefono":"986412488","nombre":"CPR Plurilingüe Montecastelo","lat":42.21406}},{"geometry":{"coordinates":[-8.70198,42.24259],"type":"Point"},"type":"Feature","properties":{"barrio":null,"codigo_postal":null,"numero":41,"web":null,"calle":"RUA MONTECELO ALTO","parroquia":null,"lon":-8.70198,"id":5186,"telefono":"986272047","nombre":"CPR Plurilingüe Monterrey","lat":42.24259}}],"type":"FeatureCollection"}