{"features":[{"geometry":{"coordinates":[-8.71553,42.20161],"type":"Point"},"type":"Feature","properties":{"barrio":"SAA","codigo_postal":"36312","numero":10,"web":null,"calle":"CMÑO OUTEIRO (BEADE)","parroquia":"BEADE","lon":-8.71553,"id":1865,"telefono":"886111030","nombre":"IES de Beade","lat":42.20161}},{"geometry":{"coordinates":[-8.70120,42.23243],"type":"Point"},"type":"Feature","properties":{"barrio":"VIGO","codigo_postal":"36206","numero":22,"web":null,"calle":"RUA ARAGON","parroquia":"VIGO","lon":-8.70120,"id":1879,"telefono":"886111111","nombre":"IES Castelao","lat":42.23243}},{"geometry":{"coordinates":[-8.73504,42.22658],"type":"Point"},"type":"Feature","properties":{"barrio":"VIGO","codigo_postal":"36208","numero":88,"web":null,"calle":"RUA CONDE TORRECEDEIRA","parroquia":"VIGO","lon":-8.73504,"id":1923,"telefono":"986213025","nombre":"IES Politécnico de Vigo","lat":42.22658}},{"geometry":{"coordinates":[-8.72618,42.22772],"type":"Point"},"type":"Feature","properties":{"barrio":"VIGO","codigo_postal":"36203","numero":1,"web":null,"calle":"RUA JOSE GOMEZ POSADA CURROS","parroquia":"VIGO","lon":-8.72618,"id":1924,"telefono":"986422974","nombre":"IES do Castro","lat":42.22772}},{"geometry":{"coordinates":[-8.73182,42.22006],"type":"Point"},"type":"Feature","properties":{"barrio":"VIGO","codigo_postal":"36211","numero":7,"web":null,"calle":"PRAZA AMERICA","parroquia":"VIGO","lon":-8.73182,"id":1925,"telefono":"986233799","nombre":"IES Santa Irene","lat":42.22006}},{"geometry":{"coordinates":[-8.75162,42.22569],"type":"Point"},"type":"Feature","properties":{"barrio":"VIGO","codigo_postal":"36208","numero":null,"web":null,"calle":"RUA EDUARDO CABELLO","parroquia":"VIGO","lon":-8.75162,"id":1948,"telefono":"886111152","nombre":"IES Audiovisual de Vigo","lat":42.22569}},{"geometry":{"coordinates":[-8.75092,42.21526],"type":"Point"},"type":"Feature","properties":{"barrio":"VIGO","codigo_postal":"36209","numero":26,"web":null,"calle":"RUA CUNTIS","parroquia":"VIGO","lon":-8.75092,"id":1949,"telefono":"986292812","nombre":"IES Alexandre Bóveda","lat":42.21526}},{"geometry":{"coordinates":[-8.75231,42.21599],"type":"Point"},"type":"Feature","properties":{"barrio":"VIGO","codigo_postal":"36209","numero":null,"web":null,"calle":"RUA PORRIÑO","parroquia":"VIGO","lon":-8.75231,"id":1950,"telefono":"886111181","nombre":"IES Álvaro Cunqueiro","lat":42.21599}},{"geometry":{"coordinates":[-8.77965,42.19780],"type":"Point"},"type":"Feature","properties":{"barrio":"COUTO DE ABAIXO","codigo_postal":"36331","numero":68,"web":null,"calle":"RUA CARRASQUEIRA","parroquia":"CORUXO","lon":-8.77965,"id":1977,"telefono":"886111016","nombre":"IES Coruxo","lat":42.19780}},{"geometry":{"coordinates":[-8.70784,42.16702],"type":"Point"},"type":"Feature","properties":{"barrio":"SOBREIRA","codigo_postal":"36213","numero":null,"web":null,"calle":"ESTDA CLARA CAMPOAMOR","parroquia":"VALADARES","lon":-8.70784,"id":1984,"telefono":"886111060","nombre":"IES Valadares","lat":42.16702}},{"geometry":{"coordinates":[-8.67195,42.21163],"type":"Point"},"type":"Feature","properties":{"barrio":"FONTIÑAS","codigo_postal":"36215","numero":102,"web":null,"calle":"AVDA PONTE","parroquia":"CABRAL","lon":-8.67195,"id":1989,"telefono":"886120429","nombre":"IES Carlos Casares","lat":42.21163}},{"geometry":{"coordinates":[-8.67976,42.21751],"type":"Point"},"type":"Feature","properties":{"barrio":"BOUCIÑA","codigo_postal":"36214","numero":177,"web":null,"calle":"CTRA VELLA MADRID","parroquia":"LAVADORES","lon":-8.67976,"id":1990,"telefono":"886121001","nombre":"IES Ricardo Mella","lat":42.21751}},{"geometry":{"coordinates":[-8.70297,42.24353],"type":"Point"},"type":"Feature","properties":{"barrio":"VIGO","codigo_postal":"36207","numero":null,"web":null,"calle":"RUA COUTADAS (AS)","parroquia":"VIGO","lon":-8.70297,"id":1992,"telefono":"886120511","nombre":"IES Rosais 2","lat":42.24353}},{"geometry":{"coordinates":[-8.68994,42.25139],"type":"Point"},"type":"Feature","properties":{"barrio":"VIGO","codigo_postal":"36216","numero":101,"web":null,"calle":"AVDA GALICIA","parroquia":"VIGO","lon":-8.68994,"id":2003,"telefono":"886120464","nombre":"IES de Teis","lat":42.25139}},{"geometry":{"coordinates":[-8.70207,42.24387],"type":"Point"},"type":"Feature","properties":{"barrio":"VIGO","codigo_postal":"36207","numero":54,"web":null,"calle":"RUA COUTADAS (AS)","parroquia":"VIGO","lon":-8.70207,"id":2004,"telefono":"886120490","nombre":"IES República Oriental do Uruguai","lat":42.24387}},{"geometry":{"coordinates":[-8.69886,42.25365],"type":"Point"},"type":"Feature","properties":{"barrio":"VIGO","codigo_postal":"36207","numero":1,"web":null,"calle":"AVDA DOÑA FERMINA","parroquia":"VIGO","lon":-8.69886,"id":2005,"telefono":"886111003","nombre":"IES A Guía","lat":42.25365}},{"geometry":{"coordinates":[-8.73068,42.22031],"type":"Point"},"type":"Feature","properties":{"barrio":"VIGO","codigo_postal":"36210","numero":191,"web":null,"calle":"AVDA GRAN VIA","parroquia":"VIGO","lon":-8.73068,"id":2018,"telefono":"986231667","nombre":"IES Santo Tomé de Freixeiro","lat":42.22031}},{"geometry":{"coordinates":[-8.73378,42.23310],"type":"Point"},"type":"Feature","properties":{"barrio":"VIGO","codigo_postal":"36202","numero":55,"web":null,"calle":"AVDA BEIRAMAR","parroquia":"VIGO","lon":-8.73378,"id":4618,"telefono":"886110825","nombre":"Instituto Marítimo Pesqueiro do Atlántico","lat":42.23310}}],"type":"FeatureCollection"}