{"features":[{"geometry":{"coordinates":[-8.71969,42.23159],"type":"Point"},"type":"Feature","properties":{"barrio":"VIGO","codigo_postal":"36203","numero":8,"web":null,"calle":"RUA BOLIVIA","parroquia":"VIGO","lon":-8.71969,"id":5339,"telefono":"986412321","nombre":"Vivenda Asistida de Vigo","lat":42.23159}},{"geometry":{"coordinates":[-8.70508,42.22481],"type":"Point"},"type":"Feature","properties":{"barrio":"CEBOLEIRA","codigo_postal":"36205","numero":21,"web":"http://www.aspanaex.org/","calle":"RUA ANDURIÑA","parroquia":"LAVADORES","lon":-8.70508,"id":5340,"telefono":"986264379","nombre":"Vivenda Tutelada ASPANAEX","lat":42.22481}},{"geometry":{"coordinates":[-8.73000,42.23137],"type":"Point"},"type":"Feature","properties":{"barrio":"VIGO","codigo_postal":"36202","numero":36,"web":"http://www.apamp.org/","calle":"AVDA CAMELIAS","parroquia":"VIGO","lon":-8.73000,"id":5341,"telefono":"986114915","nombre":"Vivenda Tutelada Camelias","lat":42.23137}},{"geometry":{"coordinates":[-8.72650,42.22236],"type":"Point"},"type":"Feature","properties":{"barrio":"VIGO","codigo_postal":"36211","numero":146,"web":"http://www.hsjd.es/","calle":"AVDA GRAN VIA","parroquia":"VIGO","lon":-8.72650,"id":5342,"telefono":"986232740","nombre":"Vivenda Tutelada Hogar y Clínica San Rafael","lat":42.22236}},{"geometry":{"coordinates":[-8.70107,42.24122],"type":"Point"},"type":"Feature","properties":{"barrio":"VIGO","codigo_postal":"36206","numero":209,"web":"http://www.downvigo.org/","calle":"RUA ARAGON","parroquia":"VIGO","lon":-8.70107,"id":5343,"telefono":"698132274","nombre":"Vivenda Tutelada Aragón","lat":42.24122}},{"geometry":{"coordinates":[-8.70392,42.22541],"type":"Point"},"type":"Feature","properties":{"barrio":"CEBOLEIRA","codigo_postal":"36205","numero":27,"web":"http://www.downvigo.org/","calle":"RUA ANDURIÑA","parroquia":"LAVADORES","lon":-8.70392,"id":5344,"telefono":"698132536","nombre":"Vivenda Tutelada Anduriña","lat":42.22541}},{"geometry":{"coordinates":[-8.72202,42.22071],"type":"Point"},"type":"Feature","properties":{"barrio":"FREIXEIRO","codigo_postal":"36204","numero":10,"web":"http://www.centrolapalmera.com/","calle":"RUA COUTADAS","parroquia":"FREIXEIRO","lon":-8.72202,"id":5345,"telefono":"986292087","nombre":"Vivenda Comunitaria La Palmera 3","lat":42.22071}},{"geometry":{"coordinates":[-8.70334,42.19258],"type":"Point"},"type":"Feature","properties":{"barrio":"COUTADA","codigo_postal":"36312","numero":10,"web":"http://www.centrolapalmera.com/","calle":"CTRA COUTADA","parroquia":"BEADE","lon":-8.70334,"id":5346,"telefono":"986292087","nombre":"Vivenda Comunitaria La Palmera 4","lat":42.19258}},{"geometry":{"coordinates":[-8.69645,42.20859],"type":"Point"},"type":"Feature","properties":{"barrio":"BARUXANS","codigo_postal":"36214","numero":17,"web":null,"calle":"CMÑO TOUTIZO","parroquia":"BEMBRIVE","lon":-8.69645,"id":5347,"telefono":"986483359","nombre":"Vivenda Comunitaria Novo Lar Puga","lat":42.20859}},{"geometry":{"coordinates":[-8.71850,42.23511],"type":"Point"},"type":"Feature","properties":{"barrio":"VIGO","codigo_postal":"36201","numero":28,"web":"http://www.atendo.es/","calle":"RUA URZAIZ","parroquia":"VIGO","lon":-8.71850,"id":5348,"telefono":"986090913","nombre":"Vivenda Comunitaria Urzaiz","lat":42.23511}},{"geometry":{"coordinates":[-8.70611,42.19154],"type":"Point"},"type":"Feature","properties":{"barrio":"CARBALLO DO PAZO","codigo_postal":"36312","numero":3,"web":null,"calle":"CTRA PORTO","parroquia":"BEADE","lon":-8.70611,"id":5349,"telefono":"986242222","nombre":"Vivenda Comunitaria Vivenzas I","lat":42.19154}},{"geometry":{"coordinates":[-8.73833,42.21911],"type":"Point"},"type":"Feature","properties":{"barrio":"VIGO","codigo_postal":"36209","numero":27,"web":"http://www.enteca.es/","calle":"RUA QUINTELA","parroquia":"VIGO","lon":-8.73833,"id":5350,"telefono":"986119414","nombre":"Vivenda Comunitaria Enteca","lat":42.21911}},{"geometry":{"coordinates":[-8.71112,42.23419],"type":"Point"},"type":"Feature","properties":{"barrio":"VIGO","codigo_postal":"36204","numero":34,"web":"http://www.igaxes.org/","calle":"RUA VIA NORTE","parroquia":"VIGO","lon":-8.71112,"id":5351,"telefono":"986423477","nombre":"Vivenda Tutelada de Vigo","lat":42.23419}}],"type":"FeatureCollection"}