{"features":[{"geometry":{"coordinates":[-8.72229,42.22527],"type":"Point"},"type":"Feature","properties":{"barrio":"VIGO","codigo_postal":"36203","numero":106,"web":null,"calle":"AVDA GRAN VIA","parroquia":"VIGO","lon":-8.72229,"id":4651,"telefono":"986417763","nombre":"Amadora","lat":42.22527}},{"geometry":{"coordinates":[-8.72523,42.23593],"type":"Point"},"type":"Feature","properties":{"barrio":"VIGO","codigo_postal":"36202","numero":3,"web":"http://www.bacelos.com/","calle":"RUA PROGRESO","parroquia":"VIGO","lon":-8.72523,"id":4652,"telefono":"986222715","nombre":"Bacelos","lat":42.23593}},{"geometry":{"coordinates":[-8.71201,42.23395],"type":"Point"},"type":"Feature","properties":{"barrio":"VIGO","codigo_postal":"36204","numero":22,"web":null,"calle":"RUA VIA NORTE","parroquia":"VIGO","lon":-8.71201,"id":181,"telefono":"986433848","nombre":"Androx","lat":42.23395}},{"geometry":{"coordinates":[-8.72359,42.23519],"type":"Point"},"type":"Feature","properties":{"barrio":"VIGO","codigo_postal":"36202","numero":33,"web":"http://www.monteblanco.es","calle":"RUA RONDA DE DON BOSCO","parroquia":"VIGO","lon":-8.72359,"id":199,"telefono":"986431122","nombre":"Galería Monteblanco","lat":42.23519}},{"geometry":{"coordinates":[-8.72428,42.23642],"type":"Point"},"type":"Feature","properties":{"barrio":"VIGO","codigo_postal":"36202","numero":21,"web":null,"calle":"RUA DR. CADAVAL","parroquia":"VIGO","lon":-8.72428,"id":200,"telefono":null,"nombre":"Art Next","lat":42.23642}},{"geometry":{"coordinates":[-8.72146,42.23835],"type":"Point"},"type":"Feature","properties":{"barrio":"VIGO","codigo_postal":"36201","numero":35,"web":"http://www.galeriadua2.com","calle":"RUA MARQUES DE VALLADARES","parroquia":"VIGO","lon":-8.72146,"id":207,"telefono":"986113233","nombre":"DUA 2","lat":42.23835}},{"geometry":{"coordinates":[-8.72139,42.23459],"type":"Point"},"type":"Feature","properties":{"barrio":"VIGO","codigo_postal":"36203","numero":9,"web":null,"calle":"RUA JOAQUIN LORIGA","parroquia":"VIGO","lon":-8.72139,"id":4653,"telefono":"986228656","nombre":"Galería Ad Hoc","lat":42.23459}},{"geometry":{"coordinates":[-8.72408,42.23690],"type":"Point"},"type":"Feature","properties":{"barrio":"VIGO","codigo_postal":"36202","numero":3,"web":null,"calle":"RUA LOPEZ DE NEIRA","parroquia":"VIGO","lon":-8.72408,"id":4654,"telefono":"986432550","nombre":"Galería Metro","lat":42.23690}},{"geometry":{"coordinates":[-8.72258,42.23898],"type":"Point"},"type":"Feature","properties":{"barrio":"VIGO","codigo_postal":"36201","numero":7,"web":null,"calle":"PRAZA COMPOSTELA","parroquia":"VIGO","lon":-8.72258,"id":4655,"telefono":"986432452","nombre":"Galería Alameda","lat":42.23898}},{"geometry":{"coordinates":[-8.72501,42.23917],"type":"Point"},"type":"Feature","properties":{"barrio":"VIGO","codigo_postal":"36202","numero":3,"web":null,"calle":"RUA GAMBOA","parroquia":"VIGO","lon":-8.72501,"id":4656,"telefono":"986226187","nombre":"Galería Triart","lat":42.23917}},{"geometry":{"coordinates":[-8.72778,42.22655],"type":"Point"},"type":"Feature","properties":{"barrio":"VIGO","codigo_postal":"36203","numero":13,"web":"http://www.galeriatermes.es","calle":"RUA AMOR RUIBAL","parroquia":"VIGO","lon":-8.72778,"id":4657,"telefono":"986424015","nombre":"Galería Termes","lat":42.22655}},{"geometry":{"coordinates":[-8.72134,42.23835],"type":"Point"},"type":"Feature","properties":{"barrio":"VIGO","codigo_postal":"36201","numero":37,"web":"http://galeriamontenegro.com","calle":"RUA MARQUES DE VALLADARES","parroquia":"VIGO","lon":-8.72134,"id":4658,"telefono":"986430744","nombre":"Galería Montenegro","lat":42.23835}},{"geometry":{"coordinates":[-8.72417,42.23676],"type":"Point"},"type":"Feature","properties":{"barrio":"VIGO","codigo_postal":"36202","numero":5,"web":"http://artealpide.net","calle":"RUA LOPEZ DE NEIRA","parroquia":"VIGO","lon":-8.72417,"id":4660,"telefono":"986433512","nombre":"Alpide","lat":42.23676}}],"type":"FeatureCollection"}