{"features":[{"geometry":{"coordinates":[-8.6787174668,42.2063176482],"type":"Point"},"type":"Feature","properties":{"calif_t":"Sin garantía sanitaria","data_analise":"2024-06-26","lon":-8.6787174668,"calif":"SG","id":30,"nombre":"Abade","lat":42.2063176482}},{"geometry":{"coordinates":[-8.7777255209,42.1853526417],"type":"Point"},"type":"Feature","properties":{"calif_t":"No apta para el consumo humano","data_analise":"2024-07-09","lon":-8.7777255209,"calif":"NP","id":308,"nombre":"Abade","lat":42.1853526417}},{"geometry":{"coordinates":[-8.7012106017,42.1999608249],"type":"Point"},"type":"Feature","properties":{"calif_t":"No apta para el consumo humano","data_analise":"2024-02-20","lon":-8.7012106017,"calif":"NP","id":248,"nombre":"Abalde","lat":42.1999608249}},{"geometry":{"coordinates":[-8.7723407535,42.1752090755],"type":"Point"},"type":"Feature","properties":{"calif_t":"No apta para el consumo humano","data_analise":"2024-07-09","lon":-8.7723407535,"calif":"NP","id":444,"nombre":"Abelleira","lat":42.1752090755}},{"geometry":{"coordinates":[-8.7369735496,42.1879361004],"type":"Point"},"type":"Feature","properties":{"calif_t":"No apta para el consumo humano","data_analise":"2024-08-27","lon":-8.7369735496,"calif":"NP","id":430,"nombre":"Abilleira","lat":42.1879361004}},{"geometry":{"coordinates":[-8.8095002644,42.1825979733],"type":"Point"},"type":"Feature","properties":{"calif_t":"No apta para el consumo humano","data_analise":"2024-07-03","lon":-8.8095002644,"calif":"NP","id":315,"nombre":"Agrón","lat":42.1825979733}},{"geometry":{"coordinates":[-8.6872122437,42.2339330898],"type":"Point"},"type":"Feature","properties":{"calif_t":"No apta para el consumo humano","data_analise":"2023-05-08","lon":-8.6872122437,"calif":"NP","id":232,"nombre":"Aguadiña","lat":42.2339330898}},{"geometry":{"coordinates":[-8.7021770191,42.1920694621],"type":"Point"},"type":"Feature","properties":{"calif_t":"Sin garantía sanitaria","data_analise":"2024-02-19","lon":-8.7021770191,"calif":"SG","id":364,"nombre":"Alén","lat":42.1920694621}},{"geometry":{"coordinates":[-8.7205173082,42.1652328177],"type":"Point"},"type":"Feature","properties":{"calif_t":"No apta para el consumo humano","data_analise":"2024-09-02","lon":-8.7205173082,"calif":"NP","id":159,"nombre":"Alto da Garrida","lat":42.1652328177}},{"geometry":{"coordinates":[-8.6383394548,42.2325593796],"type":"Point"},"type":"Feature","properties":{"calif_t":"No apta para el consumo humano","data_analise":"2023-11-28","lon":-8.6383394548,"calif":"NP","id":55,"nombre":"Ameal","lat":42.2325593796}},{"geometry":{"coordinates":[-8.6923708107,42.2066950685],"type":"Point"},"type":"Feature","properties":{"calif_t":"No apta para el consumo humano","data_analise":"2024-04-09","lon":-8.6923708107,"calif":"NP","id":416,"nombre":"Amieiras","lat":42.2066950685}},{"geometry":{"coordinates":[-8.6640734005,42.2293794968],"type":"Point"},"type":"Feature","properties":{"calif_t":"Sin calificar","data_analise":"2024-01-23","lon":-8.6640734005,"calif":"SC","id":925,"nombre":"Amieiros","lat":42.2293794968}},{"geometry":{"coordinates":[-8.6504971421,42.2418764357],"type":"Point"},"type":"Feature","properties":{"calif_t":"Sin garantía sanitaria","data_analise":"2024-02-06","lon":-8.6504971421,"calif":"SG","id":482,"nombre":"Amilleiras","lat":42.2418764357}},{"geometry":{"coordinates":[-8.6736676151,42.2052068376],"type":"Point"},"type":"Feature","properties":{"calif_t":"No apta para el consumo humano","data_analise":"2024-07-02","lon":-8.6736676151,"calif":"NP","id":27,"nombre":"Aradas","lat":42.2052068376}},{"geometry":{"coordinates":[-8.6883821069,42.2537534337],"type":"Point"},"type":"Feature","properties":{"calif_t":"Sin garantía sanitaria","data_analise":"2023-01-30","lon":-8.6883821069,"calif":"SG","id":202,"nombre":"Arnela","lat":42.2537534337}},{"geometry":{"coordinates":[-8.6607754815,42.2338166135],"type":"Point"},"type":"Feature","properties":{"calif_t":"No apta para el consumo humano","data_analise":"2023-11-28","lon":-8.6607754815,"calif":"NP","id":371,"nombre":"Aspras","lat":42.2338166135}},{"geometry":{"coordinates":[-8.7291702743,42.2143624050],"type":"Point"},"type":"Feature","properties":{"calif_t":"Sin garantía sanitaria","data_analise":"2024-07-10","lon":-8.7291702743,"calif":"SG","id":103,"nombre":"Auditorio","lat":42.2143624050}},{"geometry":{"coordinates":[-8.7426235959,42.1988871738],"type":"Point"},"type":"Feature","properties":{"calif_t":"Sin garantía sanitaria","data_analise":"2024-08-27","lon":-8.7426235959,"calif":"SG","id":427,"nombre":"Balsa","lat":42.1988871738}},{"geometry":{"coordinates":[-8.7432584679,42.1965318535],"type":"Point"},"type":"Feature","properties":{"calif_t":"No apta para el consumo humano","data_analise":"2024-08-26","lon":-8.7432584679,"calif":"NP","id":100,"nombre":"Balsa de arriba","lat":42.1965318535}},{"geometry":{"coordinates":[-8.7335494460,42.1975907978],"type":"Point"},"type":"Feature","properties":{"calif_t":"No apta para el consumo humano","data_analise":"2024-08-27","lon":-8.7335494460,"calif":"NP","id":300,"nombre":"Balvís","lat":42.1975907978}},{"geometry":{"coordinates":[-8.7332048945,42.1983312864],"type":"Point"},"type":"Feature","properties":{"calif_t":"No apta para el consumo humano","data_analise":"2024-08-27","lon":-8.7332048945,"calif":"NP","id":301,"nombre":"Balvís Lavadoiro","lat":42.1983312864}},{"geometry":{"coordinates":[-8.7419704121,42.2221102562],"type":"Point"},"type":"Feature","properties":{"calif_t":"No apta para el consumo humano","data_analise":"2024-04-08","lon":-8.7419704121,"calif":"NP","id":150,"nombre":"Barciela","lat":42.2221102562}},{"geometry":{"coordinates":[-8.7260766733,42.1706219109],"type":"Point"},"type":"Feature","properties":{"calif_t":"Sin garantía sanitaria","data_analise":"2024-09-04","lon":-8.7260766733,"calif":"SG","id":165,"nombre":"Barrocas","lat":42.1706219109}},{"geometry":{"coordinates":[-8.7484912130,42.2208506319],"type":"Point"},"type":"Feature","properties":{"calif_t":"No apta para el consumo humano","data_analise":"2024-04-08","lon":-8.7484912130,"calif":"NP","id":148,"nombre":"Barros","lat":42.2208506319}},{"geometry":{"coordinates":[-8.6848084098,42.2361633050],"type":"Point"},"type":"Feature","properties":{"calif_t":"No apta para el consumo humano","data_analise":"2022-05-03","lon":-8.6848084098,"calif":"NP","id":93,"nombre":"Barrouco","lat":42.2361633050}},{"geometry":{"coordinates":[-8.7195641647,42.2037554048],"type":"Point"},"type":"Feature","properties":{"calif_t":"No apta para el consumo humano","data_analise":"2024-07-10","lon":-8.7195641647,"calif":"NP","id":369,"nombre":"Barxa","lat":42.2037554048}},{"geometry":{"coordinates":[-8.7246172682,42.1919878141],"type":"Point"},"type":"Feature","properties":{"calif_t":"No apta para el consumo humano","data_analise":"2024-08-27","lon":-8.7246172682,"calif":"NP","id":111,"nombre":"Beirán","lat":42.1919878141}},{"geometry":{"coordinates":[-8.6530101007,42.2317566097],"type":"Point"},"type":"Feature","properties":{"calif_t":"No apta para el consumo humano","data_analise":"2024-01-23","lon":-8.6530101007,"calif":"NP","id":58,"nombre":"Besada","lat":42.2317566097}},{"geometry":{"coordinates":[-8.6753847959,42.2376042431],"type":"Point"},"type":"Feature","properties":{"calif_t":"Sin garantía sanitaria","data_analise":"2024-02-06","lon":-8.6753847959,"calif":"SG","id":81,"nombre":"Blanqueiro","lat":42.2376042431}},{"geometry":{"coordinates":[-8.6891883074,42.2215198494],"type":"Point"},"type":"Feature","properties":{"calif_t":"No apta para el consumo humano","data_analise":"2024-11-05","lon":-8.6891883074,"calif":"NP","id":269,"nombre":"Bouzaboa","lat":42.2215198494}},{"geometry":{"coordinates":[-8.7665775976,42.1864420854],"type":"Point"},"type":"Feature","properties":{"calif_t":"No apta para el consumo humano","data_analise":"2024-07-10","lon":-8.7665775976,"calif":"NP","id":322,"nombre":"Bouzós","lat":42.1864420854}},{"geometry":{"coordinates":[-8.7760944073,42.1911064535],"type":"Point"},"type":"Feature","properties":{"calif_t":"No apta para el consumo humano","data_analise":"2024-07-10","lon":-8.7760944073,"calif":"NP","id":393,"nombre":"Burdés","lat":42.1911064535}},{"geometry":{"coordinates":[-8.7259944945,42.1901806713],"type":"Point"},"type":"Feature","properties":{"calif_t":"No apta para el consumo humano","data_analise":"2024-08-28","lon":-8.7259944945,"calif":"NP","id":92,"nombre":"Cabadiña","lat":42.1901806713}},{"geometry":{"coordinates":[-8.7328775018,42.1753585690],"type":"Point"},"type":"Feature","properties":{"calif_t":"No apta para el consumo humano","data_analise":"2024-09-03","lon":-8.7328775018,"calif":"NP","id":170,"nombre":"Cacheira","lat":42.1753585690}},{"geometry":{"coordinates":[-8.6984757422,42.2063367425],"type":"Point"},"type":"Feature","properties":{"calif_t":"No apta para el consumo humano","data_analise":"2024-07-02","lon":-8.6984757422,"calif":"NP","id":10,"nombre":"Cacheno","lat":42.2063367425}},{"geometry":{"coordinates":[-8.8014251341,42.1665076525],"type":"Point"},"type":"Feature","properties":{"calif_t":"No apta para el consumo humano","data_analise":"2024-07-04","lon":-8.8014251341,"calif":"NP","id":354,"nombre":"Cal do Outeiro","lat":42.1665076525}},{"geometry":{"coordinates":[-8.6775404994,42.2057147173],"type":"Point"},"type":"Feature","properties":{"calif_t":"Sin calificar","data_analise":"2024-07-02","lon":-8.6775404994,"calif":"SC","id":437,"nombre":"Camiño de Puga","lat":42.2057147173}},{"geometry":{"coordinates":[-8.6492489276,42.2225364278],"type":"Point"},"type":"Feature","properties":{"calif_t":"Sin calificar","data_analise":"2024-01-23","lon":-8.6492489276,"calif":"SC","id":46,"nombre":"Campo","lat":42.2225364278}},{"geometry":{"coordinates":[-8.6786459932,42.2356603067],"type":"Point"},"type":"Feature","properties":{"calif_t":"No apta para el consumo humano","data_analise":"2022-05-04","lon":-8.6786459932,"calif":"NP","id":475,"nombre":"Cancalleira","lat":42.2356603067}},{"geometry":{"coordinates":[-8.6785607411,42.1832102793],"type":"Point"},"type":"Feature","properties":{"calif_t":"No apta para el consumo humano","data_analise":"2024-07-01","lon":-8.6785607411,"calif":"NP","id":23,"nombre":"Capela","lat":42.1832102793}},{"geometry":{"coordinates":[-8.7210177006,42.1889584215],"type":"Point"},"type":"Feature","properties":{"calif_t":"No apta para el consumo humano","data_analise":"2024-09-04","lon":-8.7210177006,"calif":"NP","id":154,"nombre":"Caramancho","lat":42.1889584215}},{"geometry":{"coordinates":[-8.6993281203,42.1853118024],"type":"Point"},"type":"Feature","properties":{"calif_t":"No apta para el consumo humano","data_analise":"2024-02-20","lon":-8.6993281203,"calif":"NP","id":432,"nombre":"Caramuxo","lat":42.1853118024}},{"geometry":{"coordinates":[-8.7309686486,42.2007754273],"type":"Point"},"type":"Feature","properties":{"calif_t":"Sin garantía sanitaria","data_analise":"2024-08-26","lon":-8.7309686486,"calif":"SG","id":426,"nombre":"Carapucha","lat":42.2007754273}},{"geometry":{"coordinates":[-8.7760944073,42.1911064535],"type":"Point"},"type":"Feature","properties":{"calif_t":"No apta para el consumo humano","data_analise":"2024-07-10","lon":-8.7760944073,"calif":"NP","id":314,"nombre":"Carballal","lat":42.1911064535}},{"geometry":{"coordinates":[-8.6976361519,42.2030407793],"type":"Point"},"type":"Feature","properties":{"calif_t":"Sin garantía sanitaria","data_analise":"2024-07-02","lon":-8.6976361519,"calif":"SG","id":37,"nombre":"Carballeira","lat":42.2030407793}},{"geometry":{"coordinates":[-8.6653788382,42.2445876068],"type":"Point"},"type":"Feature","properties":{"calif_t":"Sin garantía sanitaria","data_analise":"2024-02-06","lon":-8.6653788382,"calif":"SG","id":376,"nombre":"Carballiño do Pío","lat":42.2445876068}},{"geometry":{"coordinates":[-8.7636565104,42.1798465489],"type":"Point"},"type":"Feature","properties":{"calif_t":"Sin garantía sanitaria","data_analise":"2024-07-09","lon":-8.7636565104,"calif":"SG","id":901,"nombre":"Carballo ou fontefria","lat":42.1798465489}},{"geometry":{"coordinates":[-8.7175823706,42.1876184136],"type":"Point"},"type":"Feature","properties":{"calif_t":"Sin calificar","data_analise":"2024-09-23","lon":-8.7175823706,"calif":"SC","id":240,"nombre":"Caride","lat":42.1876184136}},{"geometry":{"coordinates":[-8.7230423310,42.1949147082],"type":"Point"},"type":"Feature","properties":{"calif_t":"No apta para el consumo humano","data_analise":"2024-08-27","lon":-8.7230423310,"calif":"NP","id":102,"nombre":"Carneiras","lat":42.1949147082}},{"geometry":{"coordinates":[-8.6711585037,42.2452435623],"type":"Point"},"type":"Feature","properties":{"calif_t":"Sin garantía sanitaria","data_analise":"2024-02-22","lon":-8.6711585037,"calif":"SG","id":82,"nombre":"Carrancha","lat":42.2452435623}},{"geometry":{"coordinates":[-8.7191640673,42.1861710335],"type":"Point"},"type":"Feature","properties":{"calif_t":"Sin garantía sanitaria","data_analise":"2024-09-04","lon":-8.7191640673,"calif":"SG","id":155,"nombre":"Carregal","lat":42.1861710335}},{"geometry":{"coordinates":[-8.6963181839,42.1990250670],"type":"Point"},"type":"Feature","properties":{"calif_t":"No apta para el consumo humano","data_analise":"2024-02-20","lon":-8.6963181839,"calif":"NP","id":366,"nombre":"Carteira","lat":42.1990250670}},{"geometry":{"coordinates":[-8.6913790238,42.2387445816],"type":"Point"},"type":"Feature","properties":{"calif_t":"Sin calificar","data_analise":"2023-05-08","lon":-8.6913790238,"calif":"SC","id":263,"nombre":"Casal","lat":42.2387445816}},{"geometry":{"coordinates":[-8.7676443642,42.2038570966],"type":"Point"},"type":"Feature","properties":{"calif_t":"No apta para el consumo humano","data_analise":"2022-03-16","lon":-8.7676443642,"calif":"NP","id":245,"nombre":"Casimiro","lat":42.2038570966}},{"geometry":{"coordinates":[-8.6604947348,42.2361380400],"type":"Point"},"type":"Feature","properties":{"calif_t":"Sin garantía sanitaria","data_analise":"2023-11-28","lon":-8.6604947348,"calif":"SG","id":57,"nombre":"Castañal","lat":42.2361380400}},{"geometry":{"coordinates":[-8.6860129971,42.2102346624],"type":"Point"},"type":"Feature","properties":{"calif_t":"Sin garantía sanitaria","data_analise":"2024-04-09","lon":-8.6860129971,"calif":"SG","id":32,"nombre":"Castiñeiras","lat":42.2102346624}},{"geometry":{"coordinates":[-8.6947566200,42.1959963541],"type":"Point"},"type":"Feature","properties":{"calif_t":"No apta para el consumo humano","data_analise":"2024-03-11","lon":-8.6947566200,"calif":"NP","id":386,"nombre":"Castor","lat":42.1959963541}},{"geometry":{"coordinates":[-8.6763211534,42.2597252418],"type":"Point"},"type":"Feature","properties":{"calif_t":"No apta para el consumo humano","data_analise":"2024-03-12","lon":-8.6763211534,"calif":"NP","id":417,"nombre":"Catro Pontes","lat":42.2597252418}},{"geometry":{"coordinates":[-8.6707882728,42.1986286744],"type":"Point"},"type":"Feature","properties":{"calif_t":"Sin garantía sanitaria","data_analise":"2022-03-22","lon":-8.6707882728,"calif":"SG","id":919,"nombre":"Cavadiña","lat":42.1986286744}},{"geometry":{"coordinates":[-8.6722590914,42.2156476240],"type":"Point"},"type":"Feature","properties":{"calif_t":"Sin garantía sanitaria","data_analise":"2023-11-27","lon":-8.6722590914,"calif":"SG","id":40,"nombre":"Cemiterio","lat":42.2156476240}},{"geometry":{"coordinates":[-8.6578334676,42.2214575084],"type":"Point"},"type":"Feature","properties":{"calif_t":"No apta para el consumo humano","data_analise":"2023-11-27","lon":-8.6578334676,"calif":"NP","id":50,"nombre":"Cenlle","lat":42.2214575084}},{"geometry":{"coordinates":[-8.6909217765,42.2550211991],"type":"Point"},"type":"Feature","properties":{"calif_t":"Sin garantía sanitaria","data_analise":"2024-03-12","lon":-8.6909217765,"calif":"SG","id":368,"nombre":"Centro Ríos","lat":42.2550211991}},{"geometry":{"coordinates":[-8.6818525928,42.1914707114],"type":"Point"},"type":"Feature","properties":{"calif_t":"No apta para el consumo humano","data_analise":"2024-07-01","lon":-8.6818525928,"calif":"NP","id":22,"nombre":"Cerdeiros","lat":42.1914707114}},{"geometry":{"coordinates":[-8.6471500517,42.2337643266],"type":"Point"},"type":"Feature","properties":{"calif_t":"Sin garantía sanitaria","data_analise":"2023-11-28","lon":-8.6471500517,"calif":"SG","id":59,"nombre":"Cernades","lat":42.2337643266}},{"geometry":{"coordinates":[-8.7184504236,42.1724710596],"type":"Point"},"type":"Feature","properties":{"calif_t":"Sin calificar","data_analise":"2024-09-02","lon":-8.7184504236,"calif":"SC","id":420,"nombre":"Changa","lat":42.1724710596}},{"geometry":{"coordinates":[-8.6953511663,42.2021861966],"type":"Point"},"type":"Feature","properties":{"calif_t":"Sin garantía sanitaria","data_analise":"2024-07-02","lon":-8.6953511663,"calif":"SG","id":316,"nombre":"Chan Sequeira","lat":42.2021861966}},{"geometry":{"coordinates":[-8.7247872365,42.1787424977],"type":"Point"},"type":"Feature","properties":{"calif_t":"No apta para el consumo humano","data_analise":"2024-09-04","lon":-8.7247872365,"calif":"NP","id":163,"nombre":"Chosca","lat":42.1787424977}},{"geometry":{"coordinates":[-8.6603505656,42.2261219774],"type":"Point"},"type":"Feature","properties":{"calif_t":"Sin calificar","data_analise":"2024-01-23","lon":-8.6603505656,"calif":"SC","id":68,"nombre":"Chouzo","lat":42.2261219774}},{"geometry":{"coordinates":[-8.6798214323,42.2590063475],"type":"Point"},"type":"Feature","properties":{"calif_t":"No apta para el consumo humano","data_analise":"2024-03-12","lon":-8.6798214323,"calif":"NP","id":200,"nombre":"Chumba","lat":42.2590063475}},{"geometry":{"coordinates":[-8.7037463910,42.2078310647],"type":"Point"},"type":"Feature","properties":{"calif_t":"Sin garantía sanitaria","data_analise":"2024-07-24","lon":-8.7037463910,"calif":"SG","id":130,"nombre":"Coba","lat":42.2078310647}},{"geometry":{"coordinates":[-8.7280594307,42.2079781358],"type":"Point"},"type":"Feature","properties":{"calif_t":"No apta para el consumo humano","data_analise":"2024-07-24","lon":-8.7280594307,"calif":"NP","id":117,"nombre":"Cocho","lat":42.2079781358}},{"geometry":{"coordinates":[-8.7344849438,42.1852495554],"type":"Point"},"type":"Feature","properties":{"calif_t":"No apta para el consumo humano","data_analise":"2024-09-23","lon":-8.7344849438,"calif":"NP","id":496,"nombre":"Coello","lat":42.1852495554}},{"geometry":{"coordinates":[-8.6961029348,42.2008680016],"type":"Point"},"type":"Feature","properties":{"calif_t":"No apta para el consumo humano","data_analise":"2024-03-11","lon":-8.6961029348,"calif":"NP","id":251,"nombre":"Cornucho","lat":42.2008680016}},{"geometry":{"coordinates":[-8.8139805255,42.1722384053],"type":"Point"},"type":"Feature","properties":{"calif_t":"No apta para el consumo humano","data_analise":"2024-07-04","lon":-8.8139805255,"calif":"NP","id":361,"nombre":"Corveira","lat":42.1722384053}},{"geometry":{"coordinates":[-8.6516907829,42.2349845442],"type":"Point"},"type":"Feature","properties":{"calif_t":"Sin garantía sanitaria","data_analise":"2023-11-28","lon":-8.6516907829,"calif":"SG","id":375,"nombre":"Coto","lat":42.2349845442}},{"geometry":{"coordinates":[-8.7202476608,42.2210192608],"type":"Point"},"type":"Feature","properties":{"calif_t":"No apta para el consumo humano","data_analise":"2024-08-28","lon":-8.7202476608,"calif":"NP","id":121,"nombre":"Coutadas","lat":42.2210192608}},{"geometry":{"coordinates":[-8.6982170921,42.1935198595],"type":"Point"},"type":"Feature","properties":{"calif_t":"Sin garantía sanitaria","data_analise":"2024-02-19","lon":-8.6982170921,"calif":"SG","id":9,"nombre":"Coutadas","lat":42.1935198595}},{"geometry":{"coordinates":[-8.6749148182,42.2338862685],"type":"Point"},"type":"Feature","properties":{"calif_t":"No apta para el consumo humano","data_analise":"2024-01-24","lon":-8.6749148182,"calif":"NP","id":939,"nombre":"Covela","lat":42.2338862685}},{"geometry":{"coordinates":[-8.7004919925,42.1949651425],"type":"Point"},"type":"Feature","properties":{"calif_t":"No apta para el consumo humano","data_analise":"2024-02-19","lon":-8.7004919925,"calif":"NP","id":908,"nombre":"Covelo","lat":42.1949651425}},{"geometry":{"coordinates":[-8.7036357102,42.2105288852],"type":"Point"},"type":"Feature","properties":{"calif_t":"No apta para el consumo humano","data_analise":"2024-07-24","lon":-8.7036357102,"calif":"NP","id":382,"nombre":"Cuco","lat":42.2105288852}},{"geometry":{"coordinates":[-8.7025609725,42.1949333198],"type":"Point"},"type":"Feature","properties":{"calif_t":"Sin garantía sanitaria","data_analise":"2024-02-19","lon":-8.7025609725,"calif":"SG","id":436,"nombre":"Cú da Viña","lat":42.1949333198}},{"geometry":{"coordinates":[-8.7300103126,42.1673315354],"type":"Point"},"type":"Feature","properties":{"calif_t":"No apta para el consumo humano","data_analise":"2024-03-06","lon":-8.7300103126,"calif":"NP","id":171,"nombre":"Cuncha","lat":42.1673315354}},{"geometry":{"coordinates":[-8.6729117549,42.2280052631],"type":"Point"},"type":"Feature","properties":{"calif_t":"Sin garantía sanitaria","data_analise":"2023-11-28","lon":-8.6729117549,"calif":"SG","id":380,"nombre":"Currás","lat":42.2280052631}},{"geometry":{"coordinates":[-8.6902006049,42.2283439198],"type":"Point"},"type":"Feature","properties":{"calif_t":"No apta para el consumo humano","data_analise":"2024-11-05","lon":-8.6902006049,"calif":"NP","id":262,"nombre":"Curros","lat":42.2283439198}},{"geometry":{"coordinates":[-8.6943314893,42.1915174489],"type":"Point"},"type":"Feature","properties":{"calif_t":"Sin garantía sanitaria","data_analise":"2024-03-11","lon":-8.6943314893,"calif":"SG","id":907,"nombre":"Demo","lat":42.1915174489}},{"geometry":{"coordinates":[-8.6826972287,42.2001665433],"type":"Point"},"type":"Feature","properties":{"calif_t":"No apta para el consumo humano","data_analise":"2024-04-09","lon":-8.6826972287,"calif":"NP","id":17,"nombre":"Devesa","lat":42.2001665433}},{"geometry":{"coordinates":[-8.7116907934,42.1960115601],"type":"Point"},"type":"Feature","properties":{"calif_t":"Sin garantía sanitaria","data_analise":"2024-02-19","lon":-8.7116907934,"calif":"SG","id":918,"nombre":"Dimadeos","lat":42.1960115601}},{"geometry":{"coordinates":[-8.7401785790,42.1799235527],"type":"Point"},"type":"Feature","properties":{"calif_t":"Sin garantía sanitaria","data_analise":"2024-09-23","lon":-8.7401785790,"calif":"SG","id":256,"nombre":"Eido Vello","lat":42.1799235527}},{"geometry":{"coordinates":[-8.6925118381,42.2013175092],"type":"Point"},"type":"Feature","properties":{"calif_t":"No apta para el consumo humano","data_analise":"2024-07-02","lon":-8.6925118381,"calif":"NP","id":11,"nombre":"Eifonso","lat":42.2013175092}},{"geometry":{"coordinates":[-8.7684495906,42.2056059758],"type":"Point"},"type":"Feature","properties":{"calif_t":"Sin garantía sanitaria","data_analise":"2022-03-16","lon":-8.7684495906,"calif":"SG","id":487,"nombre":"Eira Vella","lat":42.2056059758}},{"geometry":{"coordinates":[-8.6908210207,42.2044981434],"type":"Point"},"type":"Feature","properties":{"calif_t":"Sin garantía sanitaria","data_analise":"2024-03-05","lon":-8.6908210207,"calif":"SG","id":13,"nombre":"Entidade","lat":42.2044981434}},{"geometry":{"coordinates":[-8.6534200395,42.2430084837],"type":"Point"},"type":"Feature","properties":{"calif_t":"No apta para el consumo humano","data_analise":"2024-01-24","lon":-8.6534200395,"calif":"NP","id":84,"nombre":"Escales","lat":42.2430084837}},{"geometry":{"coordinates":[-8.7355241550,42.2137639499],"type":"Point"},"type":"Feature","properties":{"calif_t":"Sin calificar","data_analise":"2024-07-24","lon":-8.7355241550,"calif":"SC","id":289,"nombre":"Espedrigada","lat":42.2137639499}},{"geometry":{"coordinates":[-8.6503310291,42.2415863715],"type":"Point"},"type":"Feature","properties":{"calif_t":"Sin garantía sanitaria","data_analise":"2024-02-06","lon":-8.6503310291,"calif":"SG","id":86,"nombre":"Esqueiriña","lat":42.2415863715}},{"geometry":{"coordinates":[-8.7110196269,42.1737646548],"type":"Point"},"type":"Feature","properties":{"calif_t":"No apta para el consumo humano","data_analise":"2024-09-03","lon":-8.7110196269,"calif":"NP","id":460,"nombre":"Estrada","lat":42.1737646548}},{"geometry":{"coordinates":[-8.6860356670,42.2183881283],"type":"Point"},"type":"Feature","properties":{"calif_t":"No apta para el consumo humano","data_analise":"2024-11-04","lon":-8.6860356670,"calif":"NP","id":404,"nombre":"Estrada Vella","lat":42.2183881283}},{"geometry":{"coordinates":[-8.6840477700,42.2198745021],"type":"Point"},"type":"Feature","properties":{"calif_t":"Sin calificar","data_analise":"2024-11-04","lon":-8.6840477700,"calif":"SC","id":405,"nombre":"Estrada Vella Madrid","lat":42.2198745021}},{"geometry":{"coordinates":[-8.7036489490,42.1745531921],"type":"Point"},"type":"Feature","properties":{"calif_t":"No apta para el consumo humano","data_analise":"2024-09-02","lon":-8.7036489490,"calif":"NP","id":175,"nombre":"Fabás","lat":42.1745531921}},{"geometry":{"coordinates":[-8.7029101783,42.1747913632],"type":"Point"},"type":"Feature","properties":{"calif_t":"No apta para el consumo humano","data_analise":"2024-09-02","lon":-8.7029101783,"calif":"NP","id":402,"nombre":"Fabas Lavadoiro","lat":42.1747913632}},{"geometry":{"coordinates":[-8.6843641533,42.2016404698],"type":"Point"},"type":"Feature","properties":{"calif_t":"No apta para el consumo humano","data_analise":"2024-04-09","lon":-8.6843641533,"calif":"NP","id":35,"nombre":"Fame","lat":42.2016404698}},{"geometry":{"coordinates":[-8.7685962967,42.1826788947],"type":"Point"},"type":"Feature","properties":{"calif_t":"Sin garantía sanitaria","data_analise":"2024-07-09","lon":-8.7685962967,"calif":"SG","id":926,"nombre":"Feital","lat":42.1826788947}},{"geometry":{"coordinates":[-8.6761144931,42.2335996262],"type":"Point"},"type":"Feature","properties":{"calif_t":"No apta para el consumo humano","data_analise":"2024-01-24","lon":-8.6761144931,"calif":"NP","id":72,"nombre":"Felisa","lat":42.2335996262}},{"geometry":{"coordinates":[-8.6948081402,42.2448453144],"type":"Point"},"type":"Feature","properties":{"calif_t":"Sin garantía sanitaria","data_analise":"2024-03-13","lon":-8.6948081402,"calif":"SG","id":189,"nombre":"Fenosa","lat":42.2448453144}},{"geometry":{"coordinates":[-8.6828018113,42.2544856368],"type":"Point"},"type":"Feature","properties":{"calif_t":"No apta para el consumo humano","data_analise":"2024-03-12","lon":-8.6828018113,"calif":"NP","id":424,"nombre":"Ferreira","lat":42.2544856368}},{"geometry":{"coordinates":[-8.7450723496,42.2159004610],"type":"Point"},"type":"Feature","properties":{"calif_t":"No apta para el consumo humano","data_analise":"2024-04-08","lon":-8.7450723496,"calif":"NP","id":146,"nombre":"Figueirido","lat":42.2159004610}},{"geometry":{"coordinates":[-8.7010573931,42.1890655103],"type":"Point"},"type":"Feature","properties":{"calif_t":"No apta para el consumo humano","data_analise":"2024-03-11","lon":-8.7010573931,"calif":"NP","id":290,"nombre":"Figueirós","lat":42.1890655103}},{"geometry":{"coordinates":[-8.6931465532,42.2061644538],"type":"Point"},"type":"Feature","properties":{"calif_t":"Sin garantía sanitaria","data_analise":"2024-04-09","lon":-8.6931465532,"calif":"SG","id":12,"nombre":"Fionde","lat":42.2061644538}},{"geometry":{"coordinates":[-8.6861614566,42.1570647089],"type":"Point"},"type":"Feature","properties":{"calif_t":"No apta para el consumo humano","data_analise":"2024-07-24","lon":-8.6861614566,"calif":"NP","id":185,"nombre":"Fixón","lat":42.1570647089}},{"geometry":{"coordinates":[-8.6644564470,42.2246404880],"type":"Point"},"type":"Feature","properties":{"calif_t":"No apta para el consumo humano","data_analise":"2024-01-23","lon":-8.6644564470,"calif":"NP","id":374,"nombre":"Fixón","lat":42.2246404880}},{"geometry":{"coordinates":[-8.6800464201,42.2254529636],"type":"Point"},"type":"Feature","properties":{"calif_t":"No apta para el consumo humano","data_analise":"2022-05-04","lon":-8.6800464201,"calif":"NP","id":280,"nombre":"Folón","lat":42.2254529636}},{"geometry":{"coordinates":[-8.6608160856,42.2239201200],"type":"Point"},"type":"Feature","properties":{"calif_t":"No apta para el consumo humano","data_analise":"2023-11-27","lon":-8.6608160856,"calif":"NP","id":367,"nombre":"Fontaíña","lat":42.2239201200}},{"geometry":{"coordinates":[-8.8139484527,42.1647363689],"type":"Point"},"type":"Feature","properties":{"calif_t":"No apta para el consumo humano","data_analise":"2024-07-04","lon":-8.8139484527,"calif":"NP","id":363,"nombre":"Fontán","lat":42.1647363689}},{"geometry":{"coordinates":[-8.6999865294,42.2583236017],"type":"Point"},"type":"Feature","properties":{"calif_t":"Sin garantía sanitaria","data_analise":"2024-04-08","lon":-8.6999865294,"calif":"SG","id":206,"nombre":"Fontáns","lat":42.2583236017}},{"geometry":{"coordinates":[-8.6968615008,42.2306500446],"type":"Point"},"type":"Feature","properties":{"calif_t":"No apta para el consumo humano","data_analise":"2024-11-05","lon":-8.6968615008,"calif":"NP","id":273,"nombre":"Fontáns","lat":42.2306500446}},{"geometry":{"coordinates":[-8.6711764660,42.2341172958],"type":"Point"},"type":"Feature","properties":{"calif_t":"Sin garantía sanitaria","data_analise":"2024-01-24","lon":-8.6711764660,"calif":"SG","id":73,"nombre":"Fonte Barca","lat":42.2341172958}},{"geometry":{"coordinates":[-8.7032039540,42.1882375693],"type":"Point"},"type":"Feature","properties":{"calif_t":"Sin garantía sanitaria","data_analise":"2024-02-20","lon":-8.7032039540,"calif":"SG","id":5,"nombre":"Fonte Nova","lat":42.1882375693}},{"geometry":{"coordinates":[-8.7476178325,42.1923585601],"type":"Point"},"type":"Feature","properties":{"calif_t":"No apta para el consumo humano","data_analise":"2024-08-26","lon":-8.7476178325,"calif":"NP","id":296,"nombre":"FonteSanta","lat":42.1923585601}},{"geometry":{"coordinates":[-8.7217465948,42.2172226196],"type":"Point"},"type":"Feature","properties":{"calif_t":"No apta para el consumo humano","data_analise":"2024-08-28","lon":-8.7217465948,"calif":"NP","id":384,"nombre":"Fonte Santa","lat":42.2172226196}},{"geometry":{"coordinates":[-8.6431782358,42.2407861572],"type":"Point"},"type":"Feature","properties":{"calif_t":"Sin garantía sanitaria","data_analise":"2024-02-06","lon":-8.6431782358,"calif":"SG","id":88,"nombre":"Fontiña","lat":42.2407861572}},{"geometry":{"coordinates":[-8.8001174285,42.1703958609],"type":"Point"},"type":"Feature","properties":{"calif_t":"No apta para el consumo humano","data_analise":"2024-07-04","lon":-8.8001174285,"calif":"NP","id":434,"nombre":"Fontiña","lat":42.1703958609}},{"geometry":{"coordinates":[-8.6733942547,42.2197144098],"type":"Point"},"type":"Feature","properties":{"calif_t":"No apta para el consumo humano","data_analise":"2023-11-27","lon":-8.6733942547,"calif":"NP","id":67,"nombre":"Fontiñas","lat":42.2197144098}},{"geometry":{"coordinates":[-8.7156997077,42.1793757220],"type":"Point"},"type":"Feature","properties":{"calif_t":"Sin calificar","data_analise":"2024-09-23","lon":-8.7156997077,"calif":"SC","id":935,"nombre":"Foxo","lat":42.1793757220}},{"geometry":{"coordinates":[-8.6780006358,42.2054632705],"type":"Point"},"type":"Feature","properties":{"calif_t":"No apta para el consumo humano","data_analise":"2024-06-26","lon":-8.6780006358,"calif":"NP","id":401,"nombre":"Freires","lat":42.2054632705}},{"geometry":{"coordinates":[-8.7218778283,42.2163074417],"type":"Point"},"type":"Feature","properties":{"calif_t":"No apta para el consumo humano","data_analise":"2024-08-28","lon":-8.7218778283,"calif":"NP","id":411,"nombre":"Freixeiro","lat":42.2163074417}},{"geometry":{"coordinates":[-8.6900233849,42.1815125488],"type":"Point"},"type":"Feature","properties":{"calif_t":"No apta para el consumo humano","data_analise":"2024-06-03","lon":-8.6900233849,"calif":"NP","id":425,"nombre":"Friales","lat":42.1815125488}},{"geometry":{"coordinates":[-8.6967340184,42.2145706900],"type":"Point"},"type":"Feature","properties":{"calif_t":"Sin calificar","data_analise":"2024-11-05","lon":-8.6967340184,"calif":"SC","id":133,"nombre":"Gandariña","lat":42.2145706900}},{"geometry":{"coordinates":[-8.7013369606,42.2196638166],"type":"Point"},"type":"Feature","properties":{"calif_t":"No apta para el consumo humano","data_analise":"2024-11-05","lon":-8.7013369606,"calif":"NP","id":227,"nombre":"Gandarón","lat":42.2196638166}},{"geometry":{"coordinates":[-8.8039094875,42.1656923370],"type":"Point"},"type":"Feature","properties":{"calif_t":"No apta para el consumo humano","data_analise":"2024-07-04","lon":-8.8039094875,"calif":"NP","id":186,"nombre":"Garcías","lat":42.1656923370}},{"geometry":{"coordinates":[-8.7776629564,42.1872499761],"type":"Point"},"type":"Feature","properties":{"calif_t":"Sin garantía sanitaria","data_analise":"2024-07-09","lon":-8.7776629564,"calif":"SG","id":310,"nombre":"Garexo","lat":42.1872499761}},{"geometry":{"coordinates":[-8.7210974507,42.1670187986],"type":"Point"},"type":"Feature","properties":{"calif_t":"No apta para el consumo humano","data_analise":"2024-09-02","lon":-8.7210974507,"calif":"NP","id":158,"nombre":"Garrida","lat":42.1670187986}},{"geometry":{"coordinates":[-8.6859707253,42.2323906369],"type":"Point"},"type":"Feature","properties":{"calif_t":"No apta para el consumo humano","data_analise":"2024-11-06","lon":-8.6859707253,"calif":"NP","id":236,"nombre":"Gatos","lat":42.2323906369}},{"geometry":{"coordinates":[-8.6634330815,42.2432769262],"type":"Point"},"type":"Feature","properties":{"calif_t":"Sin garantía sanitaria","data_analise":"2024-01-24","lon":-8.6634330815,"calif":"SG","id":76,"nombre":"Goleta","lat":42.2432769262}},{"geometry":{"coordinates":[-8.6973584633,42.2392829576],"type":"Point"},"type":"Feature","properties":{"calif_t":"No apta para el consumo humano","data_analise":"2024-11-06","lon":-8.6973584633,"calif":"NP","id":246,"nombre":"Gonderán","lat":42.2392829576}},{"geometry":{"coordinates":[-8.8105035907,42.1710352875],"type":"Point"},"type":"Feature","properties":{"calif_t":"No apta para el consumo humano","data_analise":"2024-07-04","lon":-8.8105035907,"calif":"NP","id":358,"nombre":"Gondufe","lat":42.1710352875}},{"geometry":{"coordinates":[-8.7902995220,42.1821548889],"type":"Point"},"type":"Feature","properties":{"calif_t":"No apta para el consumo humano","data_analise":"2024-07-03","lon":-8.7902995220,"calif":"NP","id":187,"nombre":"Gontade","lat":42.1821548889}},{"geometry":{"coordinates":[-8.6836556587,42.2510115622],"type":"Point"},"type":"Feature","properties":{"calif_t":"Sin garantía sanitaria","data_analise":"2024-03-13","lon":-8.6836556587,"calif":"SG","id":197,"nombre":"Gorgollón","lat":42.2510115622}},{"geometry":{"coordinates":[-8.6688942489,42.2127142600],"type":"Point"},"type":"Feature","properties":{"calif_t":"No apta para el consumo humano","data_analise":"2023-11-28","lon":-8.6688942489,"calif":"NP","id":39,"nombre":"Gorxal","lat":42.2127142600}},{"geometry":{"coordinates":[-8.6965373432,42.2572292815],"type":"Point"},"type":"Feature","properties":{"calif_t":"Sin garantía sanitaria","data_analise":"2024-04-08","lon":-8.6965373432,"calif":"SG","id":205,"nombre":"Grande","lat":42.2572292815}},{"geometry":{"coordinates":[-8.6721088154,42.1946865357],"type":"Point"},"type":"Feature","properties":{"calif_t":"Sin calificar","data_analise":"2024-06-26","lon":-8.6721088154,"calif":"SC","id":440,"nombre":"Grifo","lat":42.1946865357}},{"geometry":{"coordinates":[-8.7639551540,42.2158694233],"type":"Point"},"type":"Feature","properties":{"calif_t":"No apta para el consumo humano","data_analise":"2024-07-24","lon":-8.7639551540,"calif":"NP","id":211,"nombre":"Grilas","lat":42.2158694233}},{"geometry":{"coordinates":[-8.6529822827,42.2234865703],"type":"Point"},"type":"Feature","properties":{"calif_t":"Sin garantía sanitaria","data_analise":"2023-11-27","lon":-8.6529822827,"calif":"SG","id":419,"nombre":"Grileira","lat":42.2234865703}},{"geometry":{"coordinates":[-8.6551409580,42.2224782209],"type":"Point"},"type":"Feature","properties":{"calif_t":"Sin garantía sanitaria","data_analise":"2023-11-27","lon":-8.6551409580,"calif":"SG","id":51,"nombre":"Grileira Vella","lat":42.2224782209}},{"geometry":{"coordinates":[-8.7912690576,42.1879552262],"type":"Point"},"type":"Feature","properties":{"calif_t":"No apta para el consumo humano","data_analise":"2024-07-03","lon":-8.7912690576,"calif":"NP","id":188,"nombre":"Hermida","lat":42.1879552262}},{"geometry":{"coordinates":[-8.6886265090,42.2558255505],"type":"Point"},"type":"Feature","properties":{"calif_t":"No apta para el consumo humano","data_analise":"2023-01-30","lon":-8.6886265090,"calif":"NP","id":217,"nombre":"Igrexa","lat":42.2558255505}},{"geometry":{"coordinates":[-8.6574963809,42.2220711361],"type":"Point"},"type":"Feature","properties":{"calif_t":"Sin garantía sanitaria","data_analise":"2023-11-27","lon":-8.6574963809,"calif":"SG","id":395,"nombre":"Igrexa","lat":42.2220711361}},{"geometry":{"coordinates":[-8.7684495906,42.2056059758],"type":"Point"},"type":"Feature","properties":{"calif_t":"Sin garantía sanitaria","data_analise":"2022-03-16","lon":-8.7684495906,"calif":"SG","id":284,"nombre":"Igrexa","lat":42.2056059758}},{"geometry":{"coordinates":[-8.6864510968,42.1532683446],"type":"Point"},"type":"Feature","properties":{"calif_t":"Sin calificar","data_analise":"2024-07-24","lon":-8.6864510968,"calif":"SC","id":179,"nombre":"Igrexa-A Cruz","lat":42.1532683446}},{"geometry":{"coordinates":[-8.7490101545,42.1884951931],"type":"Point"},"type":"Feature","properties":{"calif_t":"No apta para el consumo humano","data_analise":"2023-02-27","lon":-8.7490101545,"calif":"NP","id":399,"nombre":"Incineradora","lat":42.1884951931}},{"geometry":{"coordinates":[-8.7133503525,42.1852350187],"type":"Point"},"type":"Feature","properties":{"calif_t":"Sin garantía sanitaria","data_analise":"2024-02-20","lon":-8.7133503525,"calif":"SG","id":4,"nombre":"Infernos","lat":42.1852350187}},{"geometry":{"coordinates":[-8.6908759617,42.2544066585],"type":"Point"},"type":"Feature","properties":{"calif_t":"No apta para el consumo humano","data_analise":"2023-01-30","lon":-8.6908759617,"calif":"NP","id":203,"nombre":"Jacoteira","lat":42.2544066585}},{"geometry":{"coordinates":[-8.7319399738,42.1957077865],"type":"Point"},"type":"Feature","properties":{"calif_t":"Sin garantía sanitaria","data_analise":"2024-08-27","lon":-8.7319399738,"calif":"SG","id":112,"nombre":"Lagarella","lat":42.1957077865}},{"geometry":{"coordinates":[-8.7084947839,42.1733043098],"type":"Point"},"type":"Feature","properties":{"calif_t":"Sin garantía sanitaria","data_analise":"2024-09-03","lon":-8.7084947839,"calif":"SG","id":174,"nombre":"Lago","lat":42.1733043098}},{"geometry":{"coordinates":[-8.6929648055,42.2087638425],"type":"Point"},"type":"Feature","properties":{"calif_t":"No apta para el consumo humano","data_analise":"2024-07-01","lon":-8.6929648055,"calif":"NP","id":271,"nombre":"Lago","lat":42.2087638425}},{"geometry":{"coordinates":[-8.7005740938,42.2001134347],"type":"Point"},"type":"Feature","properties":{"calif_t":"Sin garantía sanitaria","data_analise":"2024-02-20","lon":-8.7005740938,"calif":"SG","id":249,"nombre":"Lagoa","lat":42.2001134347}},{"geometry":{"coordinates":[-8.6998879120,42.1776903710],"type":"Point"},"type":"Feature","properties":{"calif_t":"No apta para el consumo humano","data_analise":"2024-02-20","lon":-8.6998879120,"calif":"NP","id":379,"nombre":"Laguimeiros","lat":42.1776903710}},{"geometry":{"coordinates":[-8.6858749646,42.2201328130],"type":"Point"},"type":"Feature","properties":{"calif_t":"Sin garantía sanitaria","data_analise":"2022-04-26","lon":-8.6858749646,"calif":"SG","id":265,"nombre":"Lamballa","lat":42.2201328130}},{"geometry":{"coordinates":[-8.7017124540,42.2018263655],"type":"Point"},"type":"Feature","properties":{"calif_t":"No apta para el consumo humano","data_analise":"2024-03-11","lon":-8.7017124540,"calif":"NP","id":250,"nombre":"Lameira","lat":42.2018263655}},{"geometry":{"coordinates":[-8.7949750790,42.1720371026],"type":"Point"},"type":"Feature","properties":{"calif_t":"Sin garantía sanitaria","data_analise":"2024-07-03","lon":-8.7949750790,"calif":"SG","id":285,"nombre":"Lameiros","lat":42.1720371026}},{"geometry":{"coordinates":[-8.6587827561,42.2310604040],"type":"Point"},"type":"Feature","properties":{"calif_t":"Sin garantía sanitaria","data_analise":"2024-01-23","lon":-8.6587827561,"calif":"SG","id":66,"nombre":"Laranxeiro","lat":42.2310604040}},{"geometry":{"coordinates":[-8.7071867188,42.1930280322],"type":"Point"},"type":"Feature","properties":{"calif_t":"Sin garantía sanitaria","data_analise":"2024-02-19","lon":-8.7071867188,"calif":"SG","id":905,"nombre":"Larín","lat":42.1930280322}},{"geometry":{"coordinates":[-8.6766634853,42.2285501746],"type":"Point"},"type":"Feature","properties":{"calif_t":"No apta para el consumo humano","data_analise":"2024-11-04","lon":-8.6766634853,"calif":"NP","id":70,"nombre":"Lavadero de Barreiro","lat":42.2285501746}},{"geometry":{"coordinates":[-8.7279626159,42.1769224210],"type":"Point"},"type":"Feature","properties":{"calif_t":"No apta para el consumo humano","data_analise":"2024-09-04","lon":-8.7279626159,"calif":"NP","id":372,"nombre":"Lavadoiro da Silveira","lat":42.1769224210}},{"geometry":{"coordinates":[-8.6781249234,42.2372664766],"type":"Point"},"type":"Feature","properties":{"calif_t":"Sin garantía sanitaria","data_analise":"2024-02-06","lon":-8.6781249234,"calif":"SG","id":312,"nombre":"Lavadoiro das Roteas","lat":42.2372664766}},{"geometry":{"coordinates":[-8.7186894653,42.1722572226],"type":"Point"},"type":"Feature","properties":{"calif_t":"Sin garantía sanitaria","data_analise":"2024-09-02","lon":-8.7186894653,"calif":"SG","id":486,"nombre":"Lavadoiro da Valada","lat":42.1722572226}},{"geometry":{"coordinates":[-8.6960288999,42.2307012119],"type":"Point"},"type":"Feature","properties":{"calif_t":"No apta para el consumo humano","data_analise":"2024-11-05","lon":-8.6960288999,"calif":"NP","id":225,"nombre":"Lavadoiro de Fontáns","lat":42.2307012119}},{"geometry":{"coordinates":[-8.6727968273,42.2297000842],"type":"Point"},"type":"Feature","properties":{"calif_t":"No apta para el consumo humano","data_analise":"2024-11-06","lon":-8.6727968273,"calif":"NP","id":410,"nombre":"Lavadoiro de Fonteoscura","lat":42.2297000842}},{"geometry":{"coordinates":[-8.6873746369,42.2116163810],"type":"Point"},"type":"Feature","properties":{"calif_t":"Sin garantía sanitaria","data_analise":"2024-04-09","lon":-8.6873746369,"calif":"SG","id":31,"nombre":"Lavadoiro de Recaré","lat":42.2116163810}},{"geometry":{"coordinates":[-8.6904760810,42.2096811058],"type":"Point"},"type":"Feature","properties":{"calif_t":"No apta para el consumo humano","data_analise":"2024-07-01","lon":-8.6904760810,"calif":"NP","id":33,"nombre":"Lavadoiro de Segade","lat":42.2096811058}},{"geometry":{"coordinates":[-8.6914207571,42.1637792966],"type":"Point"},"type":"Feature","properties":{"calif_t":"No apta para el consumo humano","data_analise":"2024-07-24","lon":-8.6914207571,"calif":"NP","id":933,"nombre":"Lavadoiro Marcosende","lat":42.1637792966}},{"geometry":{"coordinates":[-8.6663850726,42.2363520571],"type":"Point"},"type":"Feature","properties":{"calif_t":"Sin garantía sanitaria","data_analise":"2024-01-24","lon":-8.6663850726,"calif":"SG","id":443,"nombre":"Lavadoiro-Xunqueira","lat":42.2363520571}},{"geometry":{"coordinates":[-8.7972918689,42.1869992090],"type":"Point"},"type":"Feature","properties":{"calif_t":"No apta para el consumo humano","data_analise":"2024-07-03","lon":-8.7972918689,"calif":"NP","id":182,"nombre":"Lavandeira","lat":42.1869992090}},{"geometry":{"coordinates":[-8.7579817542,42.1917291168],"type":"Point"},"type":"Feature","properties":{"calif_t":"No apta para el consumo humano","data_analise":"2023-02-27","lon":-8.7579817542,"calif":"NP","id":212,"nombre":"Laxe","lat":42.1917291168}},{"geometry":{"coordinates":[-8.7153336180,42.2148075806],"type":"Point"},"type":"Feature","properties":{"calif_t":"Sin garantía sanitaria","data_analise":"2024-07-24","lon":-8.7153336180,"calif":"SG","id":126,"nombre":"Laxe","lat":42.2148075806}},{"geometry":{"coordinates":[-8.6962445687,42.2103241267],"type":"Point"},"type":"Feature","properties":{"calif_t":"No apta para el consumo humano","data_analise":"2024-07-01","lon":-8.6962445687,"calif":"NP","id":34,"nombre":"Leiteira","lat":42.2103241267}},{"geometry":{"coordinates":[-8.6947208539,42.2163401195],"type":"Point"},"type":"Feature","properties":{"calif_t":"No apta para el consumo humano","data_analise":"2024-11-04","lon":-8.6947208539,"calif":"NP","id":493,"nombre":"Levada","lat":42.2163401195}},{"geometry":{"coordinates":[-8.6926480875,42.2512733461],"type":"Point"},"type":"Feature","properties":{"calif_t":"No apta para el consumo humano","data_analise":"2023-01-30","lon":-8.6926480875,"calif":"NP","id":204,"nombre":"Local","lat":42.2512733461}},{"geometry":{"coordinates":[-8.7651964627,42.1814944695],"type":"Point"},"type":"Feature","properties":{"calif_t":"No apta para el consumo humano","data_analise":"2024-07-09","lon":-8.7651964627,"calif":"NP","id":292,"nombre":"Lugar da Fonte","lat":42.1814944695}},{"geometry":{"coordinates":[-8.7361085800,42.2012083118],"type":"Point"},"type":"Feature","properties":{"calif_t":"Sin garantía sanitaria","data_analise":"2024-08-26","lon":-8.7361085800,"calif":"SG","id":97,"nombre":"Luns nº 1","lat":42.2012083118}},{"geometry":{"coordinates":[-8.7361048358,42.2011992784],"type":"Point"},"type":"Feature","properties":{"calif_t":"Sin garantía sanitaria","data_analise":"2024-08-26","lon":-8.7361048358,"calif":"SG","id":98,"nombre":"Luns nº 2","lat":42.2011992784}},{"geometry":{"coordinates":[-8.6713408829,42.2357512591],"type":"Point"},"type":"Feature","properties":{"calif_t":"No apta para el consumo humano","data_analise":"2024-01-24","lon":-8.6713408829,"calif":"NP","id":80,"nombre":"Maceiras","lat":42.2357512591}},{"geometry":{"coordinates":[-8.6420857168,42.2375336164],"type":"Point"},"type":"Feature","properties":{"calif_t":"No apta para el consumo humano","data_analise":"2023-11-28","lon":-8.6420857168,"calif":"NP","id":64,"nombre":"Mancoña","lat":42.2375336164}},{"geometry":{"coordinates":[-8.6925573165,42.1645025408],"type":"Point"},"type":"Feature","properties":{"calif_t":"No apta para el consumo humano","data_analise":"2024-07-24","lon":-8.6925573165,"calif":"NP","id":320,"nombre":"Marcosende","lat":42.1645025408}},{"geometry":{"coordinates":[-8.7800824387,42.1902820759],"type":"Point"},"type":"Feature","properties":{"calif_t":"Sin garantía sanitaria","data_analise":"2024-07-10","lon":-8.7800824387,"calif":"SG","id":313,"nombre":"Melcas","lat":42.1902820759}},{"geometry":{"coordinates":[-8.6509859415,42.2508986189],"type":"Point"},"type":"Feature","properties":{"calif_t":"No apta para el consumo humano","data_analise":"2024-02-19","lon":-8.6509859415,"calif":"NP","id":459,"nombre":"Merendeiro do Vixiador","lat":42.2508986189}},{"geometry":{"coordinates":[-8.7809901113,42.1740973956],"type":"Point"},"type":"Feature","properties":{"calif_t":"Sin garantía sanitaria","data_analise":"2024-07-09","lon":-8.7809901113,"calif":"SG","id":392,"nombre":"Merendeiro Fragoselo","lat":42.1740973956}},{"geometry":{"coordinates":[-8.7277683213,42.2062100910],"type":"Point"},"type":"Feature","properties":{"calif_t":"No apta para el consumo humano","data_analise":"2024-07-24","lon":-8.7277683213,"calif":"NP","id":109,"nombre":"Mestres Goldar","lat":42.2062100910}},{"geometry":{"coordinates":[-8.7030429480,42.2260223485],"type":"Point"},"type":"Feature","properties":{"calif_t":"No apta para el consumo humano","data_analise":"2024-11-06","lon":-8.7030429480,"calif":"NP","id":233,"nombre":"Mideiros","lat":42.2260223485}},{"geometry":{"coordinates":[-8.7382545047,42.1907229103],"type":"Point"},"type":"Feature","properties":{"calif_t":"Sin calificar","data_analise":"2024-08-28","lon":-8.7382545047,"calif":"SC","id":934,"nombre":"Millaradas","lat":42.1907229103}},{"geometry":{"coordinates":[-8.6822133701,42.1989322581],"type":"Point"},"type":"Feature","properties":{"calif_t":"Sin garantía sanitaria","data_analise":"2024-04-09","lon":-8.6822133701,"calif":"SG","id":19,"nombre":"Mina","lat":42.1989322581}},{"geometry":{"coordinates":[-8.6710189695,42.2169229730],"type":"Point"},"type":"Feature","properties":{"calif_t":"No apta para el consumo humano","data_analise":"2023-11-27","lon":-8.6710189695,"calif":"NP","id":41,"nombre":"Mina","lat":42.2169229730}},{"geometry":{"coordinates":[-8.6558102577,42.2264413174],"type":"Point"},"type":"Feature","properties":{"calif_t":"Sin calificar","data_analise":"2024-01-23","lon":-8.6558102577,"calif":"SC","id":494,"nombre":"Molares","lat":42.2264413174}},{"geometry":{"coordinates":[-8.6547689756,42.2168458094],"type":"Point"},"type":"Feature","properties":{"calif_t":"Sin garantía sanitaria","data_analise":"2024-01-23","lon":-8.6547689756,"calif":"SG","id":38,"nombre":"Monte","lat":42.2168458094}},{"geometry":{"coordinates":[-8.6996641460,42.1971094065],"type":"Point"},"type":"Feature","properties":{"calif_t":"No apta para el consumo humano","data_analise":"2024-03-11","lon":-8.6996641460,"calif":"NP","id":453,"nombre":"Morena","lat":42.1971094065}},{"geometry":{"coordinates":[-8.6859845696,42.2032870746],"type":"Point"},"type":"Feature","properties":{"calif_t":"Sin garantía sanitaria","data_analise":"2024-07-02","lon":-8.6859845696,"calif":"SG","id":223,"nombre":"Mosteiro","lat":42.2032870746}},{"geometry":{"coordinates":[-8.6557688709,42.2139420777],"type":"Point"},"type":"Feature","properties":{"calif_t":"No apta para el consumo humano","data_analise":"2024-01-24","lon":-8.6557688709,"calif":"NP","id":448,"nombre":"Moucho","lat":42.2139420777}},{"geometry":{"coordinates":[-8.7078493530,42.1708676584],"type":"Point"},"type":"Feature","properties":{"calif_t":"Sin garantía sanitaria","data_analise":"2024-09-02","lon":-8.7078493530,"calif":"SG","id":177,"nombre":"Mouteiras","lat":42.1708676584}},{"geometry":{"coordinates":[-8.7987143209,42.1661786889],"type":"Point"},"type":"Feature","properties":{"calif_t":"No apta para el consumo humano","data_analise":"2024-07-04","lon":-8.7987143209,"calif":"NP","id":435,"nombre":"Muiños de Saiáns","lat":42.1661786889}},{"geometry":{"coordinates":[-8.7302588563,42.2167653623],"type":"Point"},"type":"Feature","properties":{"calif_t":"No apta para el consumo humano","data_analise":"2024-08-28","lon":-8.7302588563,"calif":"NP","id":928,"nombre":"Museo Liste","lat":42.2167653623}},{"geometry":{"coordinates":[-8.6843397101,42.2183204249],"type":"Point"},"type":"Feature","properties":{"calif_t":"Sin calificar","data_analise":"2024-11-05","lon":-8.6843397101,"calif":"SC","id":215,"nombre":"Naia","lat":42.2183204249}},{"geometry":{"coordinates":[-8.6602245220,42.2198315050],"type":"Point"},"type":"Feature","properties":{"calif_t":"No apta para el consumo humano","data_analise":"2024-01-23","lon":-8.6602245220,"calif":"NP","id":49,"nombre":"Narxo","lat":42.2198315050}},{"geometry":{"coordinates":[-8.7131339961,42.1912579929],"type":"Point"},"type":"Feature","properties":{"calif_t":"No apta para el consumo humano","data_analise":"2024-02-20","lon":-8.7131339961,"calif":"NP","id":442,"nombre":"Norberto","lat":42.1912579929}},{"geometry":{"coordinates":[-8.6613695454,42.2361576671],"type":"Point"},"type":"Feature","properties":{"calif_t":"Sin garantía sanitaria","data_analise":"2024-01-23","lon":-8.6613695454,"calif":"SG","id":449,"nombre":"Novello","lat":42.2361576671}},{"geometry":{"coordinates":[-8.6821556083,42.2046649786],"type":"Point"},"type":"Feature","properties":{"calif_t":"Sin garantía sanitaria","data_analise":"2024-06-26","lon":-8.6821556083,"calif":"SG","id":36,"nombre":"Novelos","lat":42.2046649786}},{"geometry":{"coordinates":[-8.7187404288,42.1721079844],"type":"Point"},"type":"Feature","properties":{"calif_t":"No apta para el consumo humano","data_analise":"2024-09-02","lon":-8.7187404288,"calif":"NP","id":936,"nombre":"O Campo","lat":42.1721079844}},{"geometry":{"coordinates":[-8.8035028766,42.1875233997],"type":"Point"},"type":"Feature","properties":{"calif_t":"Sin garantía sanitaria","data_analise":"2024-07-03","lon":-8.8035028766,"calif":"SG","id":183,"nombre":"Oia Lavadoiro","lat":42.1875233997}},{"geometry":{"coordinates":[-8.6984629786,42.2345428826],"type":"Point"},"type":"Feature","properties":{"calif_t":"No apta para el consumo humano","data_analise":"2024-11-06","lon":-8.6984629786,"calif":"NP","id":138,"nombre":"Orxa","lat":42.2345428826}},{"geometry":{"coordinates":[-8.7432164445,42.1805807484],"type":"Point"},"type":"Feature","properties":{"calif_t":"No apta para el consumo humano","data_analise":"2024-09-03","lon":-8.7432164445,"calif":"NP","id":252,"nombre":"Ouro","lat":42.1805807484}},{"geometry":{"coordinates":[-8.7323935953,42.1965297697],"type":"Point"},"type":"Feature","properties":{"calif_t":"No apta para el consumo humano","data_analise":"2024-08-27","lon":-8.7323935953,"calif":"NP","id":230,"nombre":"Outeiro","lat":42.1965297697}},{"geometry":{"coordinates":[-8.7541346036,42.1921475563],"type":"Point"},"type":"Feature","properties":{"calif_t":"Sin calificar","data_analise":"2017-11-15","lon":-8.7541346036,"calif":"SC","id":136,"nombre":"Outeiro - Casás","lat":42.1921475563}},{"geometry":{"coordinates":[-8.6776194429,42.2556149611],"type":"Point"},"type":"Feature","properties":{"calif_t":"Sin garantía sanitaria","data_analise":"2024-03-13","lon":-8.6776194429,"calif":"SG","id":194,"nombre":"Padín","lat":42.2556149611}},{"geometry":{"coordinates":[-8.6626251410,42.2336962079],"type":"Point"},"type":"Feature","properties":{"calif_t":"No apta para el consumo humano","data_analise":"2023-11-28","lon":-8.6626251410,"calif":"NP","id":69,"nombre":"Parada","lat":42.2336962079}},{"geometry":{"coordinates":[-8.6845717430,42.2496271170],"type":"Point"},"type":"Feature","properties":{"calif_t":"Sin garantía sanitaria","data_analise":"2024-03-13","lon":-8.6845717430,"calif":"SG","id":196,"nombre":"Paradela","lat":42.2496271170}},{"geometry":{"coordinates":[-8.6896580762,42.2481819857],"type":"Point"},"type":"Feature","properties":{"calif_t":"No apta para el consumo humano","data_analise":"2024-04-08","lon":-8.6896580762,"calif":"NP","id":272,"nombre":"Paraixal de Abaixo","lat":42.2481819857}},{"geometry":{"coordinates":[-8.6936905222,42.2318740250],"type":"Point"},"type":"Feature","properties":{"calif_t":"No apta para el consumo humano","data_analise":"2024-11-06","lon":-8.6936905222,"calif":"NP","id":224,"nombre":"Pardavila","lat":42.2318740250}},{"geometry":{"coordinates":[-8.7948287956,42.1734670740],"type":"Point"},"type":"Feature","properties":{"calif_t":"No apta para el consumo humano","data_analise":"2024-07-03","lon":-8.7948287956,"calif":"NP","id":451,"nombre":"Parque Forestal","lat":42.1734670740}},{"geometry":{"coordinates":[-8.6862837627,42.1767143424],"type":"Point"},"type":"Feature","properties":{"calif_t":"Sin garantía sanitaria","data_analise":"2024-06-03","lon":-8.6862837627,"calif":"SG","id":457,"nombre":"Parque Forestal","lat":42.1767143424}},{"geometry":{"coordinates":[-8.7950643377,42.1680185576],"type":"Point"},"type":"Feature","properties":{"calif_t":"No apta para el consumo humano","data_analise":"2024-07-03","lon":-8.7950643377,"calif":"NP","id":477,"nombre":"Parque Forestal","lat":42.1680185576}},{"geometry":{"coordinates":[-8.7265750872,42.2128683728],"type":"Point"},"type":"Feature","properties":{"calif_t":"No apta para el consumo humano","data_analise":"2024-07-24","lon":-8.7265750872,"calif":"NP","id":107,"nombre":"Pazó","lat":42.2128683728}},{"geometry":{"coordinates":[-8.6476478077,42.2255175728],"type":"Point"},"type":"Feature","properties":{"calif_t":"No apta para el consumo humano","data_analise":"2023-11-27","lon":-8.6476478077,"calif":"NP","id":52,"nombre":"Pebidal","lat":42.2255175728}},{"geometry":{"coordinates":[-8.6455165143,42.2497095861],"type":"Point"},"type":"Feature","properties":{"calif_t":"Sin garantía sanitaria","data_analise":"2024-02-22","lon":-8.6455165143,"calif":"SG","id":480,"nombre":"Pedra Longa","lat":42.2497095861}},{"geometry":{"coordinates":[-8.7524337902,42.2033156246],"type":"Point"},"type":"Feature","properties":{"calif_t":"No apta para el consumo humano","data_analise":"2023-02-27","lon":-8.7524337902,"calif":"NP","id":279,"nombre":"Pedreira","lat":42.2033156246}},{"geometry":{"coordinates":[-8.6858235583,42.1977430535],"type":"Point"},"type":"Feature","properties":{"calif_t":"No apta para el consumo humano","data_analise":"2024-07-02","lon":-8.6858235583,"calif":"NP","id":441,"nombre":"Pedrosa","lat":42.1977430535}},{"geometry":{"coordinates":[-8.7395840741,42.1743138167],"type":"Point"},"type":"Feature","properties":{"calif_t":"No apta para el consumo humano","data_analise":"2024-09-04","lon":-8.7395840741,"calif":"NP","id":497,"nombre":"Peimallo","lat":42.1743138167}},{"geometry":{"coordinates":[-8.6618883359,42.2216732309],"type":"Point"},"type":"Feature","properties":{"calif_t":"Sin garantía sanitaria","data_analise":"2023-11-27","lon":-8.6618883359,"calif":"SG","id":48,"nombre":"Pena","lat":42.2216732309}},{"geometry":{"coordinates":[-8.7031823564,42.2386711067],"type":"Point"},"type":"Feature","properties":{"calif_t":"No apta para el consumo humano","data_analise":"2024-03-13","lon":-8.7031823564,"calif":"NP","id":287,"nombre":"Penelas","lat":42.2386711067}},{"geometry":{"coordinates":[-8.6824490306,42.1928302016],"type":"Point"},"type":"Feature","properties":{"calif_t":"Sin garantía sanitaria","data_analise":"2024-07-01","lon":-8.6824490306,"calif":"SG","id":21,"nombre":"Penseira","lat":42.1928302016}},{"geometry":{"coordinates":[-8.6582849881,42.2136553738],"type":"Point"},"type":"Feature","properties":{"calif_t":"No apta para el consumo humano","data_analise":"2024-01-23","lon":-8.6582849881,"calif":"NP","id":378,"nombre":"Penso","lat":42.2136553738}},{"geometry":{"coordinates":[-8.7349787793,42.1753818656],"type":"Point"},"type":"Feature","properties":{"calif_t":"No apta para el consumo humano","data_analise":"2024-09-03","lon":-8.7349787793,"calif":"NP","id":176,"nombre":"Pingallo","lat":42.1753818656}},{"geometry":{"coordinates":[-8.6681185562,42.2432941918],"type":"Point"},"type":"Feature","properties":{"calif_t":"Sin garantía sanitaria","data_analise":"2024-02-06","lon":-8.6681185562,"calif":"SG","id":79,"nombre":"Pío","lat":42.2432941918}},{"geometry":{"coordinates":[-8.6843459940,42.2310297018],"type":"Point"},"type":"Feature","properties":{"calif_t":"No apta para el consumo humano","data_analise":"2024-11-04","lon":-8.6843459940,"calif":"NP","id":470,"nombre":"Pobres 1","lat":42.2310297018}},{"geometry":{"coordinates":[-8.6843380717,42.2310350945],"type":"Point"},"type":"Feature","properties":{"calif_t":"No apta para el consumo humano","data_analise":"2024-11-04","lon":-8.6843380717,"calif":"NP","id":471,"nombre":"Pobres 2","lat":42.2310350945}},{"geometry":{"coordinates":[-8.6673595793,42.2192990900],"type":"Point"},"type":"Feature","properties":{"calif_t":"Sin garantía sanitaria","data_analise":"2024-01-23","lon":-8.6673595793,"calif":"SG","id":54,"nombre":"Pomar","lat":42.2192990900}},{"geometry":{"coordinates":[-8.7221083746,42.2176703661],"type":"Point"},"type":"Feature","properties":{"calif_t":"Sin garantía sanitaria","data_analise":"2024-08-28","lon":-8.7221083746,"calif":"SG","id":120,"nombre":"Ponte Nova","lat":42.2176703661}},{"geometry":{"coordinates":[-8.6908327313,42.2435403568],"type":"Point"},"type":"Feature","properties":{"calif_t":"Sin garantía sanitaria","data_analise":"2024-03-13","lon":-8.6908327313,"calif":"SG","id":418,"nombre":"Pouleira","lat":42.2435403568}},{"geometry":{"coordinates":[-8.6919612893,42.2431896890],"type":"Point"},"type":"Feature","properties":{"calif_t":"Sin garantía sanitaria","data_analise":"2024-03-13","lon":-8.6919612893,"calif":"SG","id":407,"nombre":"Pouleira Lavadoiro","lat":42.2431896890}},{"geometry":{"coordinates":[-8.6704773261,42.1951872756],"type":"Point"},"type":"Feature","properties":{"calif_t":"No apta para el consumo humano","data_analise":"2024-06-26","lon":-8.6704773261,"calif":"NP","id":439,"nombre":"Pouso","lat":42.1951872756}},{"geometry":{"coordinates":[-8.6831558248,42.2324499856],"type":"Point"},"type":"Feature","properties":{"calif_t":"No apta para el consumo humano","data_analise":"2024-11-04","lon":-8.6831558248,"calif":"NP","id":473,"nombre":"Poza","lat":42.2324499856}},{"geometry":{"coordinates":[-8.7362788171,42.1831150109],"type":"Point"},"type":"Feature","properties":{"calif_t":"No apta para el consumo humano","data_analise":"2024-09-04","lon":-8.7362788171,"calif":"NP","id":495,"nombre":"Pozos","lat":42.1831150109}},{"geometry":{"coordinates":[-8.7061732052,42.2135217031],"type":"Point"},"type":"Feature","properties":{"calif_t":"Sin garantía sanitaria","data_analise":"2024-07-24","lon":-8.7061732052,"calif":"SG","id":129,"nombre":"Preguiza","lat":42.2135217031}},{"geometry":{"coordinates":[-8.6954511093,42.1849216949],"type":"Point"},"type":"Feature","properties":{"calif_t":"No apta para el consumo humano","data_analise":"2024-02-20","lon":-8.6954511093,"calif":"NP","id":365,"nombre":"Presas","lat":42.1849216949}},{"geometry":{"coordinates":[-8.7142853182,42.1941018099],"type":"Point"},"type":"Feature","properties":{"calif_t":"No apta para el consumo humano","data_analise":"2024-02-19","lon":-8.7142853182,"calif":"NP","id":2,"nombre":"Presiñas","lat":42.1941018099}},{"geometry":{"coordinates":[-8.7227823922,42.1782834102],"type":"Point"},"type":"Feature","properties":{"calif_t":"No apta para el consumo humano","data_analise":"2024-09-04","lon":-8.7227823922,"calif":"NP","id":162,"nombre":"Quinta","lat":42.1782834102}},{"geometry":{"coordinates":[-8.6875167188,42.1977682765],"type":"Point"},"type":"Feature","properties":{"calif_t":"Sin garantía sanitaria","data_analise":"2024-07-02","lon":-8.6875167188,"calif":"SG","id":15,"nombre":"Raíña","lat":42.1977682765}},{"geometry":{"coordinates":[-8.6850478113,42.2172416096],"type":"Point"},"type":"Feature","properties":{"calif_t":"No apta para el consumo humano","data_analise":"2024-11-05","lon":-8.6850478113,"calif":"NP","id":264,"nombre":"Ramona","lat":42.2172416096}},{"geometry":{"coordinates":[-8.6419985552,42.2272955587],"type":"Point"},"type":"Feature","properties":{"calif_t":"Sin calificar","data_analise":"2023-11-27","lon":-8.6419985552,"calif":"SC","id":53,"nombre":"Rans","lat":42.2272955587}},{"geometry":{"coordinates":[-8.7171120818,42.2178521141],"type":"Point"},"type":"Feature","properties":{"calif_t":"No apta para el consumo humano","data_analise":"2024-07-24","lon":-8.7171120818,"calif":"NP","id":125,"nombre":"Raxeira","lat":42.2178521141}},{"geometry":{"coordinates":[-8.6907157604,42.2097709387],"type":"Point"},"type":"Feature","properties":{"calif_t":"Sin garantía sanitaria","data_analise":"2024-04-09","lon":-8.6907157604,"calif":"SG","id":409,"nombre":"Recaré","lat":42.2097709387}},{"geometry":{"coordinates":[-8.6998322858,42.2363268109],"type":"Point"},"type":"Feature","properties":{"calif_t":"No apta para el consumo humano","data_analise":"2022-04-28","lon":-8.6998322858,"calif":"NP","id":294,"nombre":"Redomeira","lat":42.2363268109}},{"geometry":{"coordinates":[-8.6739235417,42.2004070785],"type":"Point"},"type":"Feature","properties":{"calif_t":"No apta para el consumo humano","data_analise":"2024-04-09","lon":-8.6739235417,"calif":"NP","id":26,"nombre":"Regada","lat":42.2004070785}},{"geometry":{"coordinates":[-8.7419031346,42.2025369620],"type":"Point"},"type":"Feature","properties":{"calif_t":"Sin garantía sanitaria","data_analise":"2024-08-28","lon":-8.7419031346,"calif":"SG","id":429,"nombre":"Regadas","lat":42.2025369620}},{"geometry":{"coordinates":[-8.6739237461,42.2004121371],"type":"Point"},"type":"Feature","properties":{"calif_t":"No apta para el consumo humano","data_analise":"2024-04-09","lon":-8.6739237461,"calif":"NP","id":904,"nombre":"Regadas Lavadoiro","lat":42.2004121371}},{"geometry":{"coordinates":[-8.7105634199,42.1695135771],"type":"Point"},"type":"Feature","properties":{"calif_t":"No apta para el consumo humano","data_analise":"2024-09-03","lon":-8.7105634199,"calif":"NP","id":173,"nombre":"Regadiñas","lat":42.1695135771}},{"geometry":{"coordinates":[-8.6918513069,42.1764354560],"type":"Point"},"type":"Feature","properties":{"calif_t":"Sin garantía sanitaria","data_analise":"2024-03-12","lon":-8.6918513069,"calif":"SG","id":913,"nombre":"Regas","lat":42.1764354560}},{"geometry":{"coordinates":[-8.7946504929,42.1687023126],"type":"Point"},"type":"Feature","properties":{"calif_t":"No apta para el consumo humano","data_analise":"2024-07-03","lon":-8.7946504929,"calif":"NP","id":351,"nombre":"Regato da Estea","lat":42.1687023126}},{"geometry":{"coordinates":[-8.6826741882,42.2327317081],"type":"Point"},"type":"Feature","properties":{"calif_t":"No apta para el consumo humano","data_analise":"2024-11-04","lon":-8.6826741882,"calif":"NP","id":474,"nombre":"Rego","lat":42.2327317081}},{"geometry":{"coordinates":[-8.7498101551,42.1898951920],"type":"Point"},"type":"Feature","properties":{"calif_t":"No apta para el consumo humano","data_analise":"2023-02-15","lon":-8.7498101551,"calif":"NP","id":114,"nombre":"Rego Loureiro","lat":42.1898951920}},{"geometry":{"coordinates":[-8.6744109464,42.2327358058],"type":"Point"},"type":"Feature","properties":{"calif_t":"No apta para el consumo humano","data_analise":"2024-01-24","lon":-8.6744109464,"calif":"NP","id":71,"nombre":"Regueira","lat":42.2327358058}},{"geometry":{"coordinates":[-8.6552448759,42.2291546697],"type":"Point"},"type":"Feature","properties":{"calif_t":"Sin garantía sanitaria","data_analise":"2024-01-23","lon":-8.6552448759,"calif":"SG","id":65,"nombre":"Regueira","lat":42.2291546697}},{"geometry":{"coordinates":[-8.6847130783,42.1970109309],"type":"Point"},"type":"Feature","properties":{"calif_t":"Sin garantía sanitaria","data_analise":"2024-07-01","lon":-8.6847130783,"calif":"SG","id":20,"nombre":"Regueiriños","lat":42.1970109309}},{"geometry":{"coordinates":[-8.7613634793,42.1793767661],"type":"Point"},"type":"Feature","properties":{"calif_t":"Sin garantía sanitaria","data_analise":"2024-07-09","lon":-8.7613634793,"calif":"SG","id":293,"nombre":"Regueiro","lat":42.1793767661}},{"geometry":{"coordinates":[-8.7333684569,42.2006610650],"type":"Point"},"type":"Feature","properties":{"calif_t":"Sin garantía sanitaria","data_analise":"2024-08-26","lon":-8.7333684569,"calif":"SG","id":95,"nombre":"Regueiro","lat":42.2006610650}},{"geometry":{"coordinates":[-8.6884970540,42.2205106986],"type":"Point"},"type":"Feature","properties":{"calif_t":"No apta para el consumo humano","data_analise":"2024-11-06","lon":-8.6884970540,"calif":"NP","id":270,"nombre":"Regueiro","lat":42.2205106986}},{"geometry":{"coordinates":[-8.7402179382,42.1784609317],"type":"Point"},"type":"Feature","properties":{"calif_t":"No apta para el consumo humano","data_analise":"2024-09-03","lon":-8.7402179382,"calif":"NP","id":255,"nombre":"Regueiro do Alén","lat":42.1784609317}},{"geometry":{"coordinates":[-8.7258802535,42.1797118033],"type":"Point"},"type":"Feature","properties":{"calif_t":"Sin garantía sanitaria","data_analise":"2024-09-04","lon":-8.7258802535,"calif":"SG","id":164,"nombre":"Rei","lat":42.1797118033}},{"geometry":{"coordinates":[-8.6344189408,42.2309788046],"type":"Point"},"type":"Feature","properties":{"calif_t":"No apta para el consumo humano","data_analise":"2023-11-28","lon":-8.6344189408,"calif":"NP","id":56,"nombre":"Retorta","lat":42.2309788046}},{"geometry":{"coordinates":[-8.6835157203,42.2281347662],"type":"Point"},"type":"Feature","properties":{"calif_t":"Sin calificar","data_analise":"2022-05-04","lon":-8.6835157203,"calif":"SC","id":283,"nombre":"Ría-Cambeses","lat":42.2281347662}},{"geometry":{"coordinates":[-8.6980406267,42.2182301493],"type":"Point"},"type":"Feature","properties":{"calif_t":"Sin garantía sanitaria","data_analise":"2024-11-05","lon":-8.6980406267,"calif":"SG","id":916,"nombre":"Rial","lat":42.2182301493}},{"geometry":{"coordinates":[-8.7062898142,42.1905489723],"type":"Point"},"type":"Feature","properties":{"calif_t":"Sin garantía sanitaria","data_analise":"2024-02-19","lon":-8.7062898142,"calif":"SG","id":914,"nombre":"Rialexo","lat":42.1905489723}},{"geometry":{"coordinates":[-8.7768398807,42.1938210362],"type":"Point"},"type":"Feature","properties":{"calif_t":"No apta para el consumo humano","data_analise":"2024-07-10","lon":-8.7768398807,"calif":"NP","id":144,"nombre":"Riazón","lat":42.1938210362}},{"geometry":{"coordinates":[-8.7411791348,42.1996048866],"type":"Point"},"type":"Feature","properties":{"calif_t":"Sin garantía sanitaria","data_analise":"2024-08-26","lon":-8.7411791348,"calif":"SG","id":99,"nombre":"Ribás Río","lat":42.1996048866}},{"geometry":{"coordinates":[-8.7350036009,42.2005711485],"type":"Point"},"type":"Feature","properties":{"calif_t":"No apta para el consumo humano","data_analise":"2024-08-26","lon":-8.7350036009,"calif":"NP","id":113,"nombre":"Ribelas","lat":42.2005711485}},{"geometry":{"coordinates":[-8.6833370009,42.2323147642],"type":"Point"},"type":"Feature","properties":{"calif_t":"No apta para el consumo humano","data_analise":"2024-11-04","lon":-8.6833370009,"calif":"NP","id":472,"nombre":"Ricos","lat":42.2323147642}},{"geometry":{"coordinates":[-8.7572698451,42.1749361308],"type":"Point"},"type":"Feature","properties":{"calif_t":"No apta para el consumo humano","data_analise":"2024-07-09","lon":-8.7572698451,"calif":"NP","id":433,"nombre":"Rio da fraga","lat":42.1749361308}},{"geometry":{"coordinates":[-8.7181312258,42.1752571706],"type":"Point"},"type":"Feature","properties":{"calif_t":"Sin garantía sanitaria","data_analise":"2024-09-23","lon":-8.7181312258,"calif":"SG","id":377,"nombre":"Rio das Cortes","lat":42.1752571706}},{"geometry":{"coordinates":[-8.6953154864,42.2222016602],"type":"Point"},"type":"Feature","properties":{"calif_t":"Sin garantía sanitaria","data_analise":"2024-11-05","lon":-8.6953154864,"calif":"SG","id":228,"nombre":"Río das Pontes","lat":42.2222016602}},{"geometry":{"coordinates":[-8.7610466453,42.2220345471],"type":"Point"},"type":"Feature","properties":{"calif_t":"Sin calificar","data_analise":"2024-07-24","lon":-8.7610466453,"calif":"SC","id":210,"nombre":"Roade","lat":42.2220345471}},{"geometry":{"coordinates":[-8.7547538809,42.1984557657],"type":"Point"},"type":"Feature","properties":{"calif_t":"Sin garantía sanitaria","data_analise":"2023-02-27","lon":-8.7547538809,"calif":"SG","id":135,"nombre":"Rodeira","lat":42.1984557657}},{"geometry":{"coordinates":[-8.6906609102,42.2378070506],"type":"Point"},"type":"Feature","properties":{"calif_t":"Sin garantía sanitaria","data_analise":"2023-05-08","lon":-8.6906609102,"calif":"SG","id":920,"nombre":"Romalla","lat":42.2378070506}},{"geometry":{"coordinates":[-8.7805079568,42.1858284910],"type":"Point"},"type":"Feature","properties":{"calif_t":"No apta para el consumo humano","data_analise":"2024-07-09","lon":-8.7805079568,"calif":"NP","id":298,"nombre":"Romano","lat":42.1858284910}},{"geometry":{"coordinates":[-8.6710082797,42.2070876123],"type":"Point"},"type":"Feature","properties":{"calif_t":"Sin garantía sanitaria","data_analise":"2024-06-26","lon":-8.6710082797,"calif":"SG","id":438,"nombre":"Rorigo","lat":42.2070876123}},{"geometry":{"coordinates":[-8.6916469796,42.2455959262],"type":"Point"},"type":"Feature","properties":{"calif_t":"Sin garantía sanitaria","data_analise":"2024-03-13","lon":-8.6916469796,"calif":"SG","id":190,"nombre":"Rorís","lat":42.2455959262}},{"geometry":{"coordinates":[-8.7386485465,42.2047981811],"type":"Point"},"type":"Feature","properties":{"calif_t":"No apta para el consumo humano","data_analise":"2024-08-28","lon":-8.7386485465,"calif":"NP","id":96,"nombre":"Roupeiro","lat":42.2047981811}},{"geometry":{"coordinates":[-8.7290173775,42.1989366365],"type":"Point"},"type":"Feature","properties":{"calif_t":"No apta para el consumo humano","data_analise":"2024-08-26","lon":-8.7290173775,"calif":"NP","id":431,"nombre":"Rua Carapucha","lat":42.1989366365}},{"geometry":{"coordinates":[-8.6734404308,42.2431563866],"type":"Point"},"type":"Feature","properties":{"calif_t":"No apta para el consumo humano","data_analise":"2024-02-22","lon":-8.6734404308,"calif":"NP","id":483,"nombre":"Saladina","lat":42.2431563866}},{"geometry":{"coordinates":[-8.7276289934,42.2127087805],"type":"Point"},"type":"Feature","properties":{"calif_t":"No apta para el consumo humano","data_analise":"2024-07-10","lon":-8.7276289934,"calif":"NP","id":104,"nombre":"San Antón","lat":42.2127087805}},{"geometry":{"coordinates":[-8.6773148962,42.1865164581],"type":"Point"},"type":"Feature","properties":{"calif_t":"No apta para el consumo humano","data_analise":"2023-06-06","lon":-8.6773148962,"calif":"NP","id":24,"nombre":"San Cibrán","lat":42.1865164581}},{"geometry":{"coordinates":[-8.6392341200,42.2357512182],"type":"Point"},"type":"Feature","properties":{"calif_t":"No apta para el consumo humano","data_analise":"2023-11-28","lon":-8.6392341200,"calif":"NP","id":62,"nombre":"Sanín Alto","lat":42.2357512182}},{"geometry":{"coordinates":[-8.6392367910,42.2357525537],"type":"Point"},"type":"Feature","properties":{"calif_t":"No apta para el consumo humano","data_analise":"2023-11-28","lon":-8.6392367910,"calif":"NP","id":63,"nombre":"Sanín Baixo","lat":42.2357525537}},{"geometry":{"coordinates":[-8.6456494105,42.2215935023],"type":"Point"},"type":"Feature","properties":{"calif_t":"Sin garantía sanitaria","data_analise":"2024-01-23","lon":-8.6456494105,"calif":"SG","id":346,"nombre":"San Pedro","lat":42.2215935023}},{"geometry":{"coordinates":[-8.7278032548,42.2121904234],"type":"Point"},"type":"Feature","properties":{"calif_t":"Sin garantía sanitaria","data_analise":"2024-07-10","lon":-8.7278032548,"calif":"SG","id":105,"nombre":"Santa Ana","lat":42.2121904234}},{"geometry":{"coordinates":[-8.6749013451,42.2266394136],"type":"Point"},"type":"Feature","properties":{"calif_t":"No apta para el consumo humano","data_analise":"2024-11-06","lon":-8.6749013451,"calif":"NP","id":388,"nombre":"Santa Clara","lat":42.2266394136}},{"geometry":{"coordinates":[-8.7475072844,42.1844155333],"type":"Point"},"type":"Feature","properties":{"calif_t":"No apta para el consumo humano","data_analise":"2024-09-03","lon":-8.7475072844,"calif":"NP","id":385,"nombre":"San Xoán","lat":42.1844155333}},{"geometry":{"coordinates":[-8.8140389665,42.1668980819],"type":"Point"},"type":"Feature","properties":{"calif_t":"No apta para el consumo humano","data_analise":"2024-07-04","lon":-8.8140389665,"calif":"NP","id":362,"nombre":"San Xurxo","lat":42.1668980819}},{"geometry":{"coordinates":[-8.7169570479,42.1766574215],"type":"Point"},"type":"Feature","properties":{"calif_t":"Sin garantía sanitaria","data_analise":"2024-09-23","lon":-8.7169570479,"calif":"SG","id":489,"nombre":"Sapo","lat":42.1766574215}},{"geometry":{"coordinates":[-8.7214599203,42.1798656665],"type":"Point"},"type":"Feature","properties":{"calif_t":"No apta para el consumo humano","data_analise":"2024-09-23","lon":-8.7214599203,"calif":"NP","id":166,"nombre":"Seguedo","lat":42.1798656665}},{"geometry":{"coordinates":[-8.7113982212,42.2007486704],"type":"Point"},"type":"Feature","properties":{"calif_t":"No apta para el consumo humano","data_analise":"2024-03-11","lon":-8.7113982212,"calif":"NP","id":213,"nombre":"Seixo","lat":42.2007486704}},{"geometry":{"coordinates":[-8.6813708709,42.1573663801],"type":"Point"},"type":"Feature","properties":{"calif_t":"No apta para el consumo humano","data_analise":"2024-07-24","lon":-8.6813708709,"calif":"NP","id":319,"nombre":"Seixo","lat":42.1573663801}},{"geometry":{"coordinates":[-8.6527890229,42.2523009116],"type":"Point"},"type":"Feature","properties":{"calif_t":"Sin garantía sanitaria","data_analise":"2024-02-06","lon":-8.6527890229,"calif":"SG","id":446,"nombre":"Seixo","lat":42.2523009116}},{"geometry":{"coordinates":[-8.6716472773,42.2195996668],"type":"Point"},"type":"Feature","properties":{"calif_t":"No apta para el consumo humano","data_analise":"2023-11-27","lon":-8.6716472773,"calif":"NP","id":347,"nombre":"Sello","lat":42.2195996668}},{"geometry":{"coordinates":[-8.6697673748,42.2223267015],"type":"Point"},"type":"Feature","properties":{"calif_t":"Sin garantía sanitaria","data_analise":"2024-03-18","lon":-8.6697673748,"calif":"SG","id":42,"nombre":"Sello-Garea","lat":42.2223267015}},{"geometry":{"coordinates":[-8.6825607009,42.1976940862],"type":"Point"},"type":"Feature","properties":{"calif_t":"No apta para el consumo humano","data_analise":"2024-06-26","lon":-8.6825607009,"calif":"NP","id":305,"nombre":"Senras","lat":42.1976940862}},{"geometry":{"coordinates":[-8.7069830741,42.1599705127],"type":"Point"},"type":"Feature","properties":{"calif_t":"Sin calificar","data_analise":"2024-09-23","lon":-8.7069830741,"calif":"SC","id":456,"nombre":"Seoane","lat":42.1599705127}},{"geometry":{"coordinates":[-8.7012149695,42.2088711671],"type":"Point"},"type":"Feature","properties":{"calif_t":"Sin garantía sanitaria","data_analise":"2024-07-02","lon":-8.7012149695,"calif":"SG","id":131,"nombre":"Sidra","lat":42.2088711671}},{"geometry":{"coordinates":[-8.7236394257,42.1880994798],"type":"Point"},"type":"Feature","properties":{"calif_t":"No apta para el consumo humano","data_analise":"2024-09-04","lon":-8.7236394257,"calif":"NP","id":156,"nombre":"Simona","lat":42.1880994798}},{"geometry":{"coordinates":[-8.6482719889,42.2382828829],"type":"Point"},"type":"Feature","properties":{"calif_t":"Sin garantía sanitaria","data_analise":"2024-02-06","lon":-8.6482719889,"calif":"SG","id":85,"nombre":"Solombo","lat":42.2382828829}},{"geometry":{"coordinates":[-8.6615904661,42.2404284297],"type":"Point"},"type":"Feature","properties":{"calif_t":"No apta para el consumo humano","data_analise":"2024-01-24","lon":-8.6615904661,"calif":"NP","id":447,"nombre":"Sorrego","lat":42.2404284297}},{"geometry":{"coordinates":[-8.7114111864,42.2026634514],"type":"Point"},"type":"Feature","properties":{"calif_t":"Sin garantía sanitaria","data_analise":"2024-03-11","lon":-8.7114111864,"calif":"SG","id":214,"nombre":"Souto","lat":42.2026634514}},{"geometry":{"coordinates":[-8.6779296106,42.2348434416],"type":"Point"},"type":"Feature","properties":{"calif_t":"Sin calificar","data_analise":"2022-04-28","lon":-8.6779296106,"calif":"SC","id":317,"nombre":"Souto","lat":42.2348434416}},{"geometry":{"coordinates":[-8.7082275049,42.1712598296],"type":"Point"},"type":"Feature","properties":{"calif_t":"No apta para el consumo humano","data_analise":"2024-09-02","lon":-8.7082275049,"calif":"NP","id":160,"nombre":"Souto Lavadoiro","lat":42.1712598296}},{"geometry":{"coordinates":[-8.7301073105,42.1740167022],"type":"Point"},"type":"Feature","properties":{"calif_t":"No apta para el consumo humano","data_analise":"2024-09-03","lon":-8.7301073105,"calif":"NP","id":168,"nombre":"Souto Nº 1","lat":42.1740167022}},{"geometry":{"coordinates":[-8.7304476827,42.1751134084],"type":"Point"},"type":"Feature","properties":{"calif_t":"Sin garantía sanitaria","data_analise":"2024-09-03","lon":-8.7304476827,"calif":"SG","id":169,"nombre":"Souto Nº 2","lat":42.1751134084}},{"geometry":{"coordinates":[-8.6734964236,42.2537222895],"type":"Point"},"type":"Feature","properties":{"calif_t":"No apta para el consumo humano","data_analise":"2024-03-13","lon":-8.6734964236,"calif":"NP","id":235,"nombre":"Subida á Madroa","lat":42.2537222895}},{"geometry":{"coordinates":[-8.6711899326,42.2190039346],"type":"Point"},"type":"Feature","properties":{"calif_t":"Sin garantía sanitaria","data_analise":"2023-11-27","lon":-8.6711899326,"calif":"SG","id":397,"nombre":"Subida a Sta Mariña","lat":42.2190039346}},{"geometry":{"coordinates":[-8.6812119674,42.2548234603],"type":"Point"},"type":"Feature","properties":{"calif_t":"No apta para el consumo humano","data_analise":"2024-03-12","lon":-8.6812119674,"calif":"NP","id":199,"nombre":"Subida cemiterio","lat":42.2548234603}},{"geometry":{"coordinates":[-8.6797590943,42.2343119489],"type":"Point"},"type":"Feature","properties":{"calif_t":"No apta para el consumo humano","data_analise":"2024-11-04","lon":-8.6797590943,"calif":"NP","id":241,"nombre":"Subride","lat":42.2343119489}},{"geometry":{"coordinates":[-8.7081101795,42.1921921987],"type":"Point"},"type":"Feature","properties":{"calif_t":"Sin garantía sanitaria","data_analise":"2024-02-19","lon":-8.7081101795,"calif":"SG","id":3,"nombre":"Tallo","lat":42.1921921987}},{"geometry":{"coordinates":[-8.6590923633,42.2269872821],"type":"Point"},"type":"Feature","properties":{"calif_t":"Sin garantía sanitaria","data_analise":"2024-01-23","lon":-8.6590923633,"calif":"SG","id":917,"nombre":"Tanque","lat":42.2269872821}},{"geometry":{"coordinates":[-8.7104611955,42.2120734132],"type":"Point"},"type":"Feature","properties":{"calif_t":"Sin garantía sanitaria","data_analise":"2024-07-24","lon":-8.7104611955,"calif":"SG","id":128,"nombre":"Telleira","lat":42.2120734132}},{"geometry":{"coordinates":[-8.7345850310,42.1923309595],"type":"Point"},"type":"Feature","properties":{"calif_t":"No apta para el consumo humano","data_analise":"2024-08-27","lon":-8.7345850310,"calif":"NP","id":398,"nombre":"Tomada","lat":42.1923309595}},{"geometry":{"coordinates":[-8.7540324664,42.2215021073],"type":"Point"},"type":"Feature","properties":{"calif_t":"No apta para el consumo humano","data_analise":"2024-04-08","lon":-8.7540324664,"calif":"NP","id":491,"nombre":"Tomás Paredes","lat":42.2215021073}},{"geometry":{"coordinates":[-8.7727377580,42.1904476148],"type":"Point"},"type":"Feature","properties":{"calif_t":"No apta para el consumo humano","data_analise":"2024-07-10","lon":-8.7727377580,"calif":"NP","id":286,"nombre":"Torre","lat":42.1904476148}},{"geometry":{"coordinates":[-8.7031769280,42.2346542603],"type":"Point"},"type":"Feature","properties":{"calif_t":"No apta para el consumo humano","data_analise":"2024-11-06","lon":-8.7031769280,"calif":"NP","id":234,"nombre":"Toxal","lat":42.2346542603}},{"geometry":{"coordinates":[-8.6824619032,42.2497383664],"type":"Point"},"type":"Feature","properties":{"calif_t":"No apta para el consumo humano","data_analise":"2024-03-13","lon":-8.6824619032,"calif":"NP","id":394,"nombre":"Traída de Aguas","lat":42.2497383664}},{"geometry":{"coordinates":[-8.7189812084,42.1720352127],"type":"Point"},"type":"Feature","properties":{"calif_t":"No apta para el consumo humano","data_analise":"2024-09-02","lon":-8.7189812084,"calif":"NP","id":421,"nombre":"Valada","lat":42.1720352127}},{"geometry":{"coordinates":[-8.7113965729,42.1647222627],"type":"Point"},"type":"Feature","properties":{"calif_t":"No apta para el consumo humano","data_analise":"2024-09-03","lon":-8.7113965729,"calif":"NP","id":172,"nombre":"Vales","lat":42.1647222627}},{"geometry":{"coordinates":[-8.7128497196,42.1649962537],"type":"Point"},"type":"Feature","properties":{"calif_t":"Sin garantía sanitaria","data_analise":"2024-09-02","lon":-8.7128497196,"calif":"SG","id":161,"nombre":"Vales  Lavadoiro","lat":42.1649962537}},{"geometry":{"coordinates":[-8.6506182634,42.2509776181],"type":"Point"},"type":"Feature","properties":{"calif_t":"Sin garantía sanitaria","data_analise":"2024-02-19","lon":-8.6506182634,"calif":"SG","id":481,"nombre":"Verde","lat":42.2509776181}},{"geometry":{"coordinates":[-8.7411769889,42.1962940412],"type":"Point"},"type":"Feature","properties":{"calif_t":"No apta para el consumo humano","data_analise":"2024-08-27","lon":-8.7411769889,"calif":"NP","id":101,"nombre":"Vilar","lat":42.1962940412}},{"geometry":{"coordinates":[-8.7040205811,42.2230009523],"type":"Point"},"type":"Feature","properties":{"calif_t":"No apta para el consumo humano","data_analise":"2024-11-05","lon":-8.7040205811,"calif":"NP","id":229,"nombre":"Vilar-Cortiñas","lat":42.2230009523}},{"geometry":{"coordinates":[-8.7202178891,42.2117937015],"type":"Point"},"type":"Feature","properties":{"calif_t":"No apta para el consumo humano","data_analise":"2024-07-10","lon":-8.7202178891,"calif":"NP","id":116,"nombre":"Viloura","lat":42.2117937015}},{"geometry":{"coordinates":[-8.7665259651,42.2202098398],"type":"Point"},"type":"Feature","properties":{"calif_t":"Sin calificar","data_analise":"2023-07-13","lon":-8.7665259651,"calif":"SC","id":278,"nombre":"Viñagrande","lat":42.2202098398}},{"geometry":{"coordinates":[-8.6777352833,42.1940784833],"type":"Point"},"type":"Feature","properties":{"calif_t":"Sin garantía sanitaria","data_analise":"2024-07-01","lon":-8.6777352833,"calif":"SG","id":25,"nombre":"Xabalouca","lat":42.1940784833}},{"geometry":{"coordinates":[-8.7252157698,42.1746092823],"type":"Point"},"type":"Feature","properties":{"calif_t":"No apta para el consumo humano","data_analise":"2024-09-04","lon":-8.7252157698,"calif":"NP","id":157,"nombre":"Xestal","lat":42.1746092823}},{"geometry":{"coordinates":[-8.6734277772,42.2051936474],"type":"Point"},"type":"Feature","properties":{"calif_t":"No apta para el consumo humano","data_analise":"2024-06-26","lon":-8.6734277772,"calif":"NP","id":391,"nombre":"Xestoso","lat":42.2051936474}},{"geometry":{"coordinates":[-8.6736437665,42.2040848649],"type":"Point"},"type":"Feature","properties":{"calif_t":"No apta para el consumo humano","data_analise":"2024-07-01","lon":-8.6736437665,"calif":"NP","id":28,"nombre":"Xestoso de Arriba","lat":42.2040848649}},{"geometry":{"coordinates":[-8.7256688626,42.2089907007],"type":"Point"},"type":"Feature","properties":{"calif_t":"No apta para el consumo humano","data_analise":"2024-07-24","lon":-8.7256688626,"calif":"NP","id":108,"nombre":"Xiña","lat":42.2089907007}},{"geometry":{"coordinates":[-8.6877255030,42.2492304736],"type":"Point"},"type":"Feature","properties":{"calif_t":"No apta para el consumo humano","data_analise":"2024-04-08","lon":-8.6877255030,"calif":"NP","id":408,"nombre":"Xorxa","lat":42.2492304736}},{"geometry":{"coordinates":[-8.6810187575,42.2333861993],"type":"Point"},"type":"Feature","properties":{"calif_t":"Sin calificar","data_analise":"2022-05-04","lon":-8.6810187575,"calif":"SC","id":383,"nombre":"Xouba","lat":42.2333861993}},{"geometry":{"coordinates":[-8.6908384882,42.2490663184],"type":"Point"},"type":"Feature","properties":{"calif_t":"Sin garantía sanitaria","data_analise":"2024-03-13","lon":-8.6908384882,"calif":"SG","id":311,"nombre":"Xuncal","lat":42.2490663184}},{"geometry":{"coordinates":[-8.6941042578,42.2147778241],"type":"Point"},"type":"Feature","properties":{"calif_t":"Sin garantía sanitaria","data_analise":"2024-11-04","lon":-8.6941042578,"calif":"SG","id":266,"nombre":"Xunqueira","lat":42.2147778241}},{"geometry":{"coordinates":[-8.6424929848,42.2341456058],"type":"Point"},"type":"Feature","properties":{"calif_t":"No apta para el consumo humano","data_analise":"2023-11-28","lon":-8.6424929848,"calif":"NP","id":60,"nombre":"Zapateira","lat":42.2341456058}}],"type":"FeatureCollection"}