{"features":[{"geometry":{"coordinates":[-8.68119,42.26331],"type":"Point"},"type":"Feature","properties":{"barrio":"VIGO","codigo_postal":"36216","numero":0,"web":null,"calle":"CMÑO CACHARELA","parroquia":"VIGO","lon":-8.68119,"id":5000,"telefono":null,"nombre":"Praia de Cacharela","lat":42.26331}},{"geometry":{"coordinates":[-8.75429,42.22631],"type":"Point"},"type":"Feature","properties":{"barrio":"VIGO","codigo_postal":"36208","numero":0,"web":null,"calle":"RUA SAN MIGUEL (BOUZAS)","parroquia":"VIGO","lon":-8.75429,"id":738,"telefono":null,"nombre":"Praia do Adro","lat":42.22631}},{"geometry":{"coordinates":[-8.90274,42.22246],"type":"Point"},"type":"Feature","properties":{"barrio":"CIES","codigo_postal":"36212","numero":0,"web":null,"calle":"BARRO ILLAS CIES","parroquia":"VIGO","lon":-8.90274,"id":739,"telefono":"986225272","nombre":"Illas Cíes","lat":42.22246}},{"geometry":{"coordinates":[-8.68110,42.26329],"type":"Point"},"type":"Feature","properties":{"barrio":"VIGO","codigo_postal":"36216","numero":0,"web":null,"calle":"CMÑO LARANXO (TEIS)","parroquia":"VIGO","lon":-8.68110,"id":745,"telefono":null,"nombre":"Praia de Mende","lat":42.26329}},{"geometry":{"coordinates":[-8.69715,42.26002],"type":"Point"},"type":"Feature","properties":{"barrio":"VIGO","codigo_postal":"36207","numero":0,"web":null,"calle":"RUA DOCTOR CORBAL","parroquia":"VIGO","lon":-8.69715,"id":746,"telefono":null,"nombre":"Praia da Punta da Guia","lat":42.26002}},{"geometry":{"coordinates":[-8.76409,42.22324],"type":"Point"},"type":"Feature","properties":{"barrio":"ROADE","codigo_postal":"36208","numero":0,"web":null,"calle":"RUA ROADE","parroquia":"ALCABRE","lon":-8.76409,"id":751,"telefono":null,"nombre":"Praia de Carril","lat":42.22324}},{"geometry":{"coordinates":[-8.76731,42.22321],"type":"Point"},"type":"Feature","properties":{"barrio":"MUIÑO DO VENTO","codigo_postal":"36208","numero":0,"web":null,"calle":"CMÑO BORRALLEIRO","parroquia":"ALCABRE","lon":-8.76731,"id":752,"telefono":null,"nombre":"Praia de Santa Baia","lat":42.22321}},{"geometry":{"coordinates":[-8.76809,42.22371],"type":"Point"},"type":"Feature","properties":{"barrio":"MUIÑO DO VENTO","codigo_postal":"36208","numero":0,"web":null,"calle":"CMÑO BORRALLEIRO","parroquia":"ALCABRE","lon":-8.76809,"id":753,"telefono":null,"nombre":"Praia de Cocho","lat":42.22371}},{"geometry":{"coordinates":[-8.77256,42.22292],"type":"Point"},"type":"Feature","properties":{"barrio":"SAMIL","codigo_postal":"36212","numero":0,"web":null,"calle":"AVDA SAMIL","parroquia":"NAVIA","lon":-8.77256,"id":754,"telefono":null,"nombre":"Praia da Mourisca (Os Olmos)","lat":42.22292}},{"geometry":{"coordinates":[-8.77302,42.22259],"type":"Point"},"type":"Feature","properties":{"barrio":"FONTES","codigo_postal":"36212","numero":0,"web":null,"calle":"AVDA SAMIL","parroquia":"ALCABRE","lon":-8.77302,"id":755,"telefono":null,"nombre":"Praia das Fontes","lat":42.22259}},{"geometry":{"coordinates":[-8.77583,42.22039],"type":"Point"},"type":"Feature","properties":{"barrio":"FONTES","codigo_postal":"36212","numero":0,"web":null,"calle":"AVDA SAMIL","parroquia":"ALCABRE","lon":-8.77583,"id":756,"telefono":null,"nombre":"Praia Tombo do Gato (da Fonte)","lat":42.22039}},{"geometry":{"coordinates":[-8.77713,42.21939],"type":"Point"},"type":"Feature","properties":{"barrio":"GARITA","codigo_postal":"36212","numero":0,"web":null,"calle":"AVDA SAMIL","parroquia":"ALCABRE","lon":-8.77713,"id":757,"telefono":null,"nombre":"Praia de Espedrigada","lat":42.21939}},{"geometry":{"coordinates":[-8.77732,42.21826],"type":"Point"},"type":"Feature","properties":{"barrio":"FONTES","codigo_postal":"36208","numero":0,"web":null,"calle":"AVDA SAMIL","parroquia":"ALCABRE","lon":-8.77732,"id":758,"telefono":null,"nombre":"Praia do Cocho das Dornas","lat":42.21826}},{"geometry":{"coordinates":[-8.77616,42.21658],"type":"Point"},"type":"Feature","properties":{"barrio":"GARITA","codigo_postal":"36212","numero":0,"web":null,"calle":"AVDA SAMIL","parroquia":"ALCABRE","lon":-8.77616,"id":759,"telefono":null,"nombre":"Praia de Argazada","lat":42.21658}},{"geometry":{"coordinates":[-8.77659,42.20876],"type":"Point"},"type":"Feature","properties":{"barrio":"SAMIL","codigo_postal":"36212","numero":0,"web":null,"calle":"AVDA SAMIL","parroquia":"NAVIA","lon":-8.77659,"id":760,"telefono":null,"nombre":"Praia de Samil","lat":42.20876}},{"geometry":{"coordinates":[-8.78043,42.20347],"type":"Point"},"type":"Feature","properties":{"barrio":"CARRASQUEIRA","codigo_postal":"36331","numero":0,"web":null,"calle":"RUA CANIDO","parroquia":"CORUXO","lon":-8.78043,"id":761,"telefono":null,"nombre":"Praia de Foz","lat":42.20347}},{"geometry":{"coordinates":[-8.78209,42.20259],"type":"Point"},"type":"Feature","properties":{"barrio":"CARRASQUEIRA","codigo_postal":"36331","numero":0,"web":null,"calle":"RUA CANIDO","parroquia":"CORUXO","lon":-8.78209,"id":762,"telefono":null,"nombre":"Praia da Calzoa (As Barcas)","lat":42.20259}},{"geometry":{"coordinates":[-8.78634,42.19980],"type":"Point"},"type":"Feature","properties":{"barrio":"SILVEIRA","codigo_postal":"36331","numero":0,"web":null,"calle":"RUA CANIDO","parroquia":"CORUXO","lon":-8.78634,"id":763,"telefono":null,"nombre":"Praia da Fontaiña (Arenal da Sirenita)","lat":42.19980}},{"geometry":{"coordinates":[-8.78900,42.19928],"type":"Point"},"type":"Feature","properties":{"barrio":"BREADOURO","codigo_postal":"36331","numero":30,"web":null,"calle":"RUA CANIDO","parroquia":"CORUXO","lon":-8.78900,"id":764,"telefono":null,"nombre":"Praia do Baluarte","lat":42.19928}},{"geometry":{"coordinates":[-8.79359,42.19800],"type":"Point"},"type":"Feature","properties":{"barrio":"BREADOURO","codigo_postal":"36331","numero":0,"web":null,"calle":"RUA CANIDO","parroquia":"CORUXO","lon":-8.79359,"id":765,"telefono":"986446060","nombre":"Praia do Vao","lat":42.19800}},{"geometry":{"coordinates":[-8.79954,42.20093],"type":"Point"},"type":"Feature","properties":{"barrio":"TORALLA","codigo_postal":"36331","numero":0,"web":null,"calle":"BARRO ILLA TORALLA","parroquia":"CORUXO","lon":-8.79954,"id":766,"telefono":null,"nombre":"Praia de Toralla","lat":42.20093}},{"geometry":{"coordinates":[-8.79745,42.19411],"type":"Point"},"type":"Feature","properties":{"barrio":"CANIDO","codigo_postal":"36390","numero":0,"web":null,"calle":"RUA CANIDO","parroquia":"OIA","lon":-8.79745,"id":767,"telefono":null,"nombre":"Praia de Canido","lat":42.19411}},{"geometry":{"coordinates":[-8.80277,42.19211],"type":"Point"},"type":"Feature","properties":{"barrio":"ESTACION","codigo_postal":"36390","numero":0,"web":null,"calle":"RUA ARQUITECTO GOMEZ ROMAN","parroquia":"OIA","lon":-8.80277,"id":768,"telefono":null,"nombre":"Praia do Xunqueiro (Fuchiños)","lat":42.19211}},{"geometry":{"coordinates":[-8.80863,42.19021],"type":"Point"},"type":"Feature","properties":{"barrio":"CARRETERA CORTADA","codigo_postal":"36390","numero":0,"web":null,"calle":"RUA ARQUIT ANTONIO COMINGES","parroquia":"OIA","lon":-8.80863,"id":769,"telefono":null,"nombre":"Praia da Sobreira","lat":42.19021}},{"geometry":{"coordinates":[-8.81354,42.17592],"type":"Point"},"type":"Feature","properties":{"barrio":"FORTIÑON","codigo_postal":"36392","numero":0,"web":null,"calle":"BDA PRAIA (SAIANS)","parroquia":"SAIANS","lon":-8.81354,"id":770,"telefono":null,"nombre":"Praia de Noivos","lat":42.17592}},{"geometry":{"coordinates":[-8.81418,42.17463],"type":"Point"},"type":"Feature","properties":{"barrio":"MIDE","codigo_postal":"36392","numero":0,"web":null,"calle":"BDA PRAIA (SAIANS)","parroquia":"OIA","lon":-8.81418,"id":771,"telefono":null,"nombre":"Praia de Fortiñón","lat":42.17463}},{"geometry":{"coordinates":[-8.81645,42.16798],"type":"Point"},"type":"Feature","properties":{"barrio":"PORTIÑO","codigo_postal":"36392","numero":0,"web":null,"calle":"CMÑO PORTIÑO","parroquia":"SAIANS","lon":-8.81645,"id":772,"telefono":null,"nombre":"Praia do Portiño","lat":42.16798}},{"geometry":{"coordinates":[-8.69096,42.25717],"type":"Point"},"type":"Feature","properties":{"barrio":"VIGO","codigo_postal":"36216","numero":0,"web":null,"calle":"CMÑO RIOS","parroquia":"VIGO","lon":-8.69096,"id":5001,"telefono":null,"nombre":"Praia de Ríos","lat":42.25717}},{"geometry":{"coordinates":[-8.70539,42.25554],"type":"Point"},"type":"Feature","properties":{"barrio":"VIGO","codigo_postal":"36207","numero":0,"web":null,"calle":"RUA DR. CORBAL","parroquia":"VIGO","lon":-8.70539,"id":5002,"telefono":null,"nombre":"Praia de Lagoa","lat":42.25554}},{"geometry":{"coordinates":[-8.70498,42.25339],"type":"Point"},"type":"Feature","properties":{"barrio":"VIGO","codigo_postal":"36207","numero":0,"web":null,"calle":"CMÑO ESPIÑEIRO","parroquia":"VIGO","lon":-8.70498,"id":5003,"telefono":null,"nombre":"Praia de Manquiña","lat":42.25339}},{"geometry":{"coordinates":[-8.75880,42.22327],"type":"Point"},"type":"Feature","properties":{"barrio":"ROADE","codigo_postal":"36208","numero":0,"web":null,"calle":"RUA ROADE","parroquia":"ALCABRE","lon":-8.75880,"id":5004,"telefono":null,"nombre":"Praia de Fontoura","lat":42.22327}},{"geometry":{"coordinates":[-8.78423,42.20106],"type":"Point"},"type":"Feature","properties":{"barrio":"CARRASQUEIRA","codigo_postal":"36331","numero":0,"web":null,"calle":"RUA CANIDO","parroquia":"CORUXO","lon":-8.78423,"id":5005,"telefono":null,"nombre":"Praia de Fechiño","lat":42.20106}},{"geometry":{"coordinates":[-8.79586,42.19690],"type":"Point"},"type":"Feature","properties":{"barrio":"CARRASQUEIRA","codigo_postal":"36331","numero":0,"web":null,"calle":"RUA CANIDO","parroquia":"CORUXO","lon":-8.79586,"id":5006,"telefono":null,"nombre":"Praia do Serral","lat":42.19690}},{"geometry":{"coordinates":[-8.81211,42.18999],"type":"Point"},"type":"Feature","properties":{"barrio":"CARRETERA CORTADA","codigo_postal":"36390","numero":0,"web":null,"calle":"RUA ARQTCTO ANTONIO COMINGES","parroquia":"OIA","lon":-8.81211,"id":5007,"telefono":null,"nombre":"Praia de Buraca","lat":42.18999}},{"geometry":{"coordinates":[-8.81346,42.18429],"type":"Point"},"type":"Feature","properties":{"barrio":"ROCHAS","codigo_postal":"36390","numero":0,"web":null,"calle":"CMÑO PIRUCHA","parroquia":"OIA","lon":-8.81346,"id":5008,"telefono":null,"nombre":"Praia de Furna","lat":42.18429}},{"geometry":{"coordinates":[-8.81210,42.18220],"type":"Point"},"type":"Feature","properties":{"barrio":"ROCHAS","codigo_postal":"36390","numero":0,"web":null,"calle":"CMÑO PIRUCHA","parroquia":"OIA","lon":-8.81210,"id":5009,"telefono":null,"nombre":"Praia de Canto de Area","lat":42.18220}},{"geometry":{"coordinates":[-8.90104,42.23707],"type":"Point"},"type":"Feature","properties":{"barrio":"CIES","codigo_postal":"36212","numero":0,"web":null,"calle":"BARRO ILLAS CIES","parroquia":"VIGO","lon":-8.90104,"id":5010,"telefono":null,"nombre":"Praia de Cantereira","lat":42.23707}},{"geometry":{"coordinates":[-8.90223,42.23860],"type":"Point"},"type":"Feature","properties":{"barrio":"CIES","codigo_postal":"36212","numero":0,"web":null,"calle":"BARRO ILLAS CIES","parroquia":"VIGO","lon":-8.90223,"id":5011,"telefono":null,"nombre":"Praia de Margaridas","lat":42.23860}},{"geometry":{"coordinates":[-8.90037,42.23038],"type":"Point"},"type":"Feature","properties":{"barrio":"CIES","codigo_postal":"36212","numero":0,"web":null,"calle":"BARRO ILLAS CIES","parroquia":"VIGO","lon":-8.90037,"id":5012,"telefono":null,"nombre":"Praia de Figueiras (Alemanes)","lat":42.23038}},{"geometry":{"coordinates":[-8.89664,42.22732],"type":"Point"},"type":"Feature","properties":{"barrio":"CIES","codigo_postal":"36212","numero":0,"web":null,"calle":"BARRO ILLAS CIES","parroquia":"VIGO","lon":-8.89664,"id":5013,"telefono":null,"nombre":"Praia de Mixueiro","lat":42.22732}},{"geometry":{"coordinates":[-8.89765,42.22704],"type":"Point"},"type":"Feature","properties":{"barrio":"CIES","codigo_postal":"36212","numero":0,"web":null,"calle":"BARRO ILLAS CIES","parroquia":"VIGO","lon":-8.89765,"id":5014,"telefono":null,"nombre":"Praia de Areiña","lat":42.22704}},{"geometry":{"coordinates":[-8.90253,42.22427],"type":"Point"},"type":"Feature","properties":{"barrio":"CIES","codigo_postal":"36212","numero":0,"web":null,"calle":"BARRO ILLAS CIES","parroquia":"VIGO","lon":-8.90253,"id":5015,"telefono":null,"nombre":"Praia de Rodas","lat":42.22427}},{"geometry":{"coordinates":[-8.90017,42.21735],"type":"Point"},"type":"Feature","properties":{"barrio":"CIES","codigo_postal":"36212","numero":0,"web":null,"calle":"BARRO ILLAS CIES","parroquia":"VIGO","lon":-8.90017,"id":5016,"telefono":null,"nombre":"Praia dos Bolos","lat":42.21735}},{"geometry":{"coordinates":[-8.90248,42.21607],"type":"Point"},"type":"Feature","properties":{"barrio":"CIES","codigo_postal":"36212","numero":0,"web":null,"calle":"BARRO ILLAS CIES","parroquia":"VIGO","lon":-8.90248,"id":5017,"telefono":null,"nombre":"Praia de Nuestra Señora","lat":42.21607}},{"geometry":{"coordinates":[-8.90377,42.20427],"type":"Point"},"type":"Feature","properties":{"barrio":"CIES","codigo_postal":"36212","numero":0,"web":null,"calle":"BARRO ILLAS CIES","parroquia":"VIGO","lon":-8.90377,"id":5018,"telefono":null,"nombre":"Praia de San Martiño","lat":42.20427}}],"type":"FeatureCollection"}